{"nodes":[{"label":"Pangborn Field","x":-300.7236328125,"y":-120.56437683105469,"id":"166","attributes":{"latitude":"47.4","City":"Wenatchee","Code":"EAT","longitude":"-120.2"},"color":"rgb(47,131,247)","size":10.0},{"label":"International","x":484.3003845214844,"y":454.4665832519531,"id":"91","attributes":{"latitude":"24.55","City":"Key West","Code":"EYW","longitude":"-81.766667"},"color":"rgb(51,128,246)","size":10.0},{"label":"Reno-Tahoe International","x":287.3329772949219,"y":-49.8249397277832,"id":"183","attributes":{"latitude":"39.499167","City":"Reno, NV","Code":"RNO","longitude":"-119.768056"},"color":"rgb(47,131,247)","size":10.0},{"label":"Yeager","x":44.205474853515625,"y":-85.91648864746094,"id":"234","attributes":{"latitude":"38.366667","City":"Charleston","Code":"CRW","longitude":"-81.6"},"color":"rgb(47,131,247)","size":10.0},{"label":"Jackson-evers","x":-87.91867065429688,"y":-473.6487121582031,"id":"96","attributes":{"latitude":"32.311111","City":"Jackson","Code":"JAN","longitude":"-90.075833"},"color":"rgb(83,109,243)","size":10.0},{"label":"Waterloo","x":80.44149780273438,"y":26.097637176513672,"id":"224","attributes":{"latitude":"42.55","City":"Waterloo","Code":"ALO","longitude":"-92.383333"},"color":"rgb(54,126,246)","size":10.0},{"label":"Adams Field Airport","x":388.5462341308594,"y":-206.2845916748047,"id":"0","attributes":{"latitude":"34.729444","City":"Little Rock, AR","Code":"LIT","longitude":"-92.224444"},"color":"rgb(88,107,243)","size":10.0},{"label":"Houghton County","x":-27.311922073364258,"y":178.35813903808594,"id":"85","attributes":{"latitude":"47.123611","City":"Hancock","Code":"CMX","longitude":"-88.573333"},"color":"rgb(51,128,246)","size":10.0},{"label":"Harrisburg International","x":344.9466247558594,"y":338.8818054199219,"id":"79","attributes":{"latitude":"40.193611","City":"Harrisburg, PA","Code":"MDT","longitude":"-76.763333"},"color":"rgb(82,110,244)","size":10.0},{"label":"Brainerd Lakes Regional","x":-23.742555618286133,"y":16.570903778076172,"id":"26","attributes":{"latitude":"46.401667","City":"Brainerd, MN","Code":"BRD","longitude":"-94.135556"},"color":"rgb(52,127,246)","size":10.0},{"label":"Charleston, AFB Municipal","x":297.8678894042969,"y":-145.25633239746094,"id":"34","attributes":{"latitude":"32.898611","City":"Charleston, SC","Code":"CHS","longitude":"-80.040556"},"color":"rgb(62,122,245)","size":10.0},{"label":"Richmond International Airport","x":-175.2684326171875,"y":343.3711853027344,"id":"185","attributes":{"latitude":"37.5","City":"Richmond, VA","Code":"RIC","longitude":"-77.316667"},"color":"rgb(90,105,243)","size":10.0},{"label":"Westmoreland County","x":194.91384887695312,"y":451.3807678222656,"id":"227","attributes":{"latitude":"40.283333","City":"Latrobe","Code":"LBE","longitude":"-79.4"},"color":"rgb(47,131,247)","size":10.0},{"label":"Municipal","x":-439.2396545410156,"y":288.9169616699219,"id":"143","attributes":{"latitude":"47.05","City":"Lewistown","Code":"LWT","longitude":"-109.466667"},"color":"rgb(47,131,247)","size":10.0},{"label":"Akron/canton Regional","x":-19.409273147583008,"y":369.7881164550781,"id":"1","attributes":{"latitude":"40.916111","City":"Akron/Canton, OH","Code":"CAK","longitude":"-81.442222"},"color":"rgb(61,122,245)","size":10.0},{"label":"International","x":-446.7648620605469,"y":-139.6176300048828,"id":"93","attributes":{"latitude":"43.908333","City":"Rochester","Code":"RST","longitude":"-92.5"},"color":"rgb(75,114,244)","size":10.0},{"label":"Boise Air Terminal/Gowen Field","x":-411.0624084472656,"y":187.54319763183594,"id":"24","attributes":{"latitude":"43.564444","City":"Boise, ID","Code":"BOI","longitude":"-116.222778"},"color":"rgb(110,94,241)","size":10.0},{"label":"Ontario International","x":412.3151550292969,"y":-429.5417175292969,"id":"162","attributes":{"latitude":"34.056111","City":"Ontario","Code":"ONT","longitude":"-117.601111"},"color":"rgb(47,131,247)","size":10.0},{"label":"Quad-City","x":-103.29202270507812,"y":-487.71978759765625,"id":"175","attributes":{"latitude":"41.45","City":"Moline","Code":"MLI","longitude":"-90.516667"},"color":"rgb(74,115,244)","size":10.0},{"label":"University Park","x":380.0928649902344,"y":318.2201232910156,"id":"221","attributes":{"latitude":"40.772222","City":"State College","Code":"SCE","longitude":"-77.883333"},"color":"rgb(59,123,245)","size":10.0},{"label":"Kansas City International Airport","x":-256.3883972167969,"y":-161.36048889160156,"id":"105","attributes":{"latitude":"39.291667","City":"Kansas City","Code":"MCI","longitude":"-94.730556"},"color":"rgb(113,92,241)","size":10.0},{"label":"Memphis International","x":-303.4529724121094,"y":338.4800109863281,"id":"130","attributes":{"latitude":"35.066667","City":"Memphis","Code":"MEM","longitude":"-89.966667"},"color":"rgb(245,120,88)","size":10.0},{"label":"T. F. Green Airport","x":-163.86395263671875,"y":-226.75733947753906,"id":"211","attributes":{"latitude":"41.733333","City":"Providence","Code":"PVD","longitude":"-71.433333"},"color":"rgb(57,124,246)","size":10.0},{"label":"Albany International","x":435.0138244628906,"y":222.71592712402344,"id":"2","attributes":{"latitude":"42.733333","City":"Albany","Code":"ALB","longitude":"-73.8"},"color":"rgb(59,123,245)","size":10.0},{"label":"Toledo Express","x":-77.65753173828125,"y":-145.6670379638672,"id":"214","attributes":{"latitude":"41.586944","City":"Toledo, OH","Code":"TOL","longitude":"-83.807778"},"color":"rgb(47,131,247)","size":10.0},{"label":"Austin-straubel Field","x":79.02658081054688,"y":469.9895324707031,"id":"10","attributes":{"latitude":"44.483333","City":"Green Bay","Code":"GRB","longitude":"-88.133333"},"color":"rgb(98,101,242)","size":10.0},{"label":"San Francisco International","x":-168.57391357421875,"y":275.0874328613281,"id":"195","attributes":{"latitude":"37.618889","City":"San Francisco, CA","Code":"SFO","longitude":"-122.375"},"color":"rgb(86,108,243)","size":10.0},{"label":"International","x":131.88723754882812,"y":335.1163635253906,"id":"92","attributes":{"latitude":"48.266667","City":"Minot","Code":"MOT","longitude":"-101.283333"},"color":"rgb(51,128,246)","size":10.0},{"label":"Lemons Municipal","x":-94.45492553710938,"y":-368.55755615234375,"id":"113","attributes":{"latitude":"34.268056","City":"Tupelo","Code":"TUP","longitude":"-88.77"},"color":"rgb(47,131,247)","size":10.0},{"label":"Mc Allen Miller International","x":391.3280944824219,"y":178.46812438964844,"id":"126","attributes":{"latitude":"26.175833","City":"Mc Allen, TX","Code":"MFE","longitude":"-98.238611"},"color":"rgb(47,131,247)","size":10.0},{"label":"Regional","x":99.00363159179688,"y":5.101056098937988,"id":"178","attributes":{"latitude":"29.183333","City":"Daytona Beach","Code":"DAB","longitude":"-81.05"},"color":"rgb(47,131,247)","size":10.0},{"label":"Municipal","x":100.08621215820312,"y":193.5343475341797,"id":"148","attributes":{"latitude":"33.426111","City":"Santa Barbara, CA","Code":"SBA","longitude":"-119.840278"},"color":"rgb(47,131,247)","size":10.0},{"label":"Yampa Valley","x":-403.5683288574219,"y":-291.1722717285156,"id":"233","attributes":{"latitude":"40.519444","City":"Hayden","Code":"HDN","longitude":"-106.869444"},"color":"rgb(47,131,247)","size":10.0},{"label":"Tri-cities Regional","x":79.44876098632812,"y":469.6427917480469,"id":"217","attributes":{"latitude":"36.475278","City":"Blountville","Code":"TRI","longitude":"-82.4075"},"color":"rgb(79,111,244)","size":10.0},{"label":"Orlando International","x":220.95864868164062,"y":-120.14350891113281,"id":"163","attributes":{"latitude":"28.429444","City":"Orlando","Code":"MCO","longitude":"-81.308889"},"color":"rgb(73,115,244)","size":10.0},{"label":"Birmingham","x":-54.71923828125,"y":367.3294982910156,"id":"19","attributes":{"latitude":"33.566667","City":"Birmingham","Code":"BHM","longitude":"-86.75"},"color":"rgb(75,114,244)","size":10.0},{"label":"Blue Grass","x":-222.056640625,"y":-185.21656799316406,"id":"22","attributes":{"latitude":"38.036389","City":"Lexington","Code":"LEX","longitude":"-84.605833"},"color":"rgb(100,100,242)","size":10.0},{"label":"Glacier Park International","x":152.49917602539062,"y":15.897015571594238,"id":"71","attributes":{"latitude":"48.316667","City":"Kalispell, MT","Code":"FCA","longitude":"-114.266667"},"color":"rgb(57,125,246)","size":10.0},{"label":"Denver International","x":348.2679138183594,"y":377.4475402832031,"id":"48","attributes":{"latitude":"39.861667","City":"Denver","Code":"DEN","longitude":"-104.673056"},"color":"rgb(85,108,243)","size":10.0},{"label":"Will Rogers World Airport","x":-198.63330078125,"y":259.1089172363281,"id":"229","attributes":{"latitude":"35.393056","City":"Oklahoma City","Code":"OKC","longitude":"-97.600833"},"color":"rgb(64,120,245)","size":10.0},{"label":"MBS International","x":278.3827819824219,"y":-162.61619567871094,"id":"125","attributes":{"latitude":"43.532778","City":"Saginaw","Code":"MBS","longitude":"-83.079722"},"color":"rgb(61,122,245)","size":10.0},{"label":"Municipal","x":-103.13290405273438,"y":-202.2191925048828,"id":"142","attributes":{"latitude":"30.116667","City":"Lake Charles","Code":"LCH","longitude":"-93.216667"},"color":"rgb(47,131,247)","size":10.0},{"label":"Love Field","x":-175.37933349609375,"y":430.4695739746094,"id":"121","attributes":{"latitude":"32.852778","City":"Dallas","Code":"DAL","longitude":"-96.85"},"color":"rgb(47,131,247)","size":10.0},{"label":"Bishop International Airport","x":-194.90625,"y":261.9614562988281,"id":"20","attributes":{"latitude":"42.965556","City":"Flint","Code":"FNT","longitude":"-83.743611"},"color":"rgb(84,109,243)","size":10.0},{"label":"Tulsa International","x":40.444854736328125,"y":-24.315845489501953,"id":"219","attributes":{"latitude":"36.198333","City":"Tulsa","Code":"TUL","longitude":"-95.888056"},"color":"rgb(82,110,244)","size":10.0},{"label":"International","x":-33.135223388671875,"y":-301.28057861328125,"id":"89","attributes":{"latitude":"48.216667","City":"Glasgow","Code":"GGW","longitude":"-106.616667"},"color":"rgb(47,131,247)","size":10.0},{"label":"Ryan","x":-83.27951049804688,"y":-140.88783264160156,"id":"190","attributes":{"latitude":"30.533333","City":"Baton Rouge","Code":"BTR","longitude":"-91.15"},"color":"rgb(54,126,246)","size":10.0},{"label":"Regional","x":379.0856018066406,"y":-143.97499084472656,"id":"182","attributes":{"latitude":"32.45","City":"Shreveport","Code":"SHV","longitude":"-93.816667"},"color":"rgb(64,121,245)","size":10.0},{"label":"Sacramento International","x":60.754058837890625,"y":114.54045104980469,"id":"191","attributes":{"latitude":"38.7","City":"Sacramento, CA","Code":"SMF","longitude":"-121.616667"},"color":"rgb(74,115,244)","size":10.0},{"label":"Palm Beach International","x":-105.96298217773438,"y":384.4419250488281,"id":"165","attributes":{"latitude":"26.683056","City":"West Palm Beach","Code":"PBI","longitude":"-80.095556"},"color":"rgb(52,127,246)","size":10.0},{"label":"Key Field","x":305.0461730957031,"y":-419.2649841308594,"id":"107","attributes":{"latitude":"32.333333","City":"Meridian","Code":"MEI","longitude":"-88.75"},"color":"rgb(47,131,247)","size":10.0},{"label":"Sun Valley","x":-346.7478942871094,"y":-16.169574737548828,"id":"209","attributes":{"latitude":"43.5","City":"Sun Valley","Code":"SUN","longitude":"-114.316667"},"color":"rgb(47,131,247)","size":10.0},{"label":"Manchester-boston Regional Airport","x":290.7420959472656,"y":29.080181121826172,"id":"123","attributes":{"latitude":"42.9325","City":"Manchester, NH","Code":"MHT","longitude":"-71.435556"},"color":"rgb(60,123,245)","size":10.0},{"label":"Cedar Rapids","x":346.5748596191406,"y":29.934856414794922,"id":"31","attributes":{"latitude":"41.884722","City":"Cedar Rapids","Code":"CID","longitude":"-91.710833"},"color":"rgb(73,115,244)","size":10.0},{"label":"San Antonio International","x":-398.4477233886719,"y":-499.4638366699219,"id":"193","attributes":{"latitude":"29.533333","City":"San Antonio","Code":"SAT","longitude":"-98.466667"},"color":"rgb(69,118,245)","size":10.0},{"label":"Evansville Regional Airport","x":220.56393432617188,"y":424.4062805175781,"id":"61","attributes":{"latitude":"38.036944","City":"Evansville, IN","Code":"EVV","longitude":"-87.5325"},"color":"rgb(87,107,243)","size":10.0},{"label":"Mason City Municipal","x":150.11709594726562,"y":-376.2518005371094,"id":"124","attributes":{"latitude":"43.157778","City":"Mason City, IA","Code":"MCW","longitude":"-93.331389"},"color":"rgb(47,131,247)","size":10.0},{"label":"Greenville Spartanbur Int\u0027l Airport","x":-442.9123229980469,"y":-333.2217102050781,"id":"77","attributes":{"latitude":"34.895556","City":"Greenville","Code":"GSP","longitude":"-82.218889"},"color":"rgb(75,114,244)","size":10.0},{"label":"Minneapolis - St. Paul Intl","x":-234.55142211914062,"y":-423.80926513671875,"id":"136","attributes":{"latitude":"44.883333","City":"Minneapolis","Code":"MSP","longitude":"-93.216944"},"color":"rgb(255,179,0)","size":10.0},{"label":"Sioux Gateway","x":429.4676818847656,"y":13.404522895812988,"id":"202","attributes":{"latitude":"42.4","City":"Sioux City","Code":"SUX","longitude":"-96.383333"},"color":"rgb(52,127,246)","size":10.0},{"label":"Long Island Mac Arthur","x":-470.8076477050781,"y":-122.43272399902344,"id":"117","attributes":{"latitude":"40.795278","City":"Islip, NY","Code":"ISP","longitude":"-73.100278"},"color":"rgb(47,131,247)","size":10.0},{"label":"John F Kennedy Intl","x":-267.8006896972656,"y":453.2011413574219,"id":"102","attributes":{"latitude":"40.633333","City":"New York","Code":"JFK","longitude":"-73.783333"},"color":"rgb(75,114,244)","size":10.0},{"label":"Wilkes-Barre/Scranton International Airport","x":-422.19873046875,"y":-65.14497375488281,"id":"228","attributes":{"latitude":"41.338333","City":"Wilkes-Barre/Scranton, PA","Code":"AVP","longitude":"-75.723333"},"color":"rgb(47,131,247)","size":10.0},{"label":"Baltimore/Washington International Thurgood Marshall","x":-366.8968811035156,"y":-13.382525444030762,"id":"11","attributes":{"latitude":"39.175278","City":"Baltimore, MD","Code":"BWI","longitude":"-76.668333"},"color":"rgb(90,105,243)","size":10.0},{"label":"Falls Intl","x":-155.69757080078125,"y":-445.787109375,"id":"62","attributes":{"latitude":"48.566667","City":"International Falls","Code":"INL","longitude":"-93.4"},"color":"rgb(47,131,247)","size":10.0},{"label":"North Bend","x":-408.5143737792969,"y":-235.39222717285156,"id":"158","attributes":{"latitude":"43.416667","City":"North Bend","Code":"OTH","longitude":"-124.25"},"color":"rgb(47,131,247)","size":10.0},{"label":"Tampa International","x":285.4821472167969,"y":158.8684539794922,"id":"213","attributes":{"latitude":"27.975556","City":"Tampa","Code":"TPA","longitude":"-82.533056"},"color":"rgb(86,108,243)","size":10.0},{"label":"San Luis County Regional Airport","x":-384.69708251953125,"y":-120.14537048339844,"id":"196","attributes":{"latitude":"35.236944","City":"San Luis Obispo","Code":"SBP","longitude":"-120.641944"},"color":"rgb(47,131,247)","size":10.0},{"label":"Barkley Regional","x":193.40859985351562,"y":222.8328094482422,"id":"13","attributes":{"latitude":"37.060278","City":"Paducah, KY","Code":"PAH","longitude":"-88.773056"},"color":"rgb(58,124,246)","size":10.0},{"label":"Nez Perce County Rgnl","x":342.1480407714844,"y":-277.4958190917969,"id":"156","attributes":{"latitude":"46.383333","City":"Lewiston","Code":"LWS","longitude":"-117.033333"},"color":"rgb(47,131,247)","size":10.0},{"label":"Asheville Regional Airport","x":-233.3876953125,"y":-270.8417663574219,"id":"8","attributes":{"latitude":"35.436111","City":"Fletcher","Code":"AVL","longitude":"-82.541667"},"color":"rgb(56,125,246)","size":10.0},{"label":"Natrona County International Airport","x":384.4212341308594,"y":-141.06260681152344,"id":"153","attributes":{"latitude":"42.908056","City":"Casper, WY","Code":"CPR","longitude":"-106.464444"},"color":"rgb(47,131,247)","size":10.0},{"label":"Jacksonville,","x":5.196287155151367,"y":-255.0577850341797,"id":"97","attributes":{"latitude":"30.416667","City":"Jacksonville, FL","Code":"JAX","longitude":"-81.633333"},"color":"rgb(74,114,244)","size":10.0},{"label":"Piedmont Triad Intl","x":32.340789794921875,"y":-390.8822937011719,"id":"169","attributes":{"latitude":"36.097778","City":"Greensboro, NC","Code":"GSO","longitude":"-79.937222"},"color":"rgb(73,115,244)","size":10.0},{"label":"Capital City","x":-265.0934143066406,"y":-120.23451232910156,"id":"30","attributes":{"latitude":"42.783333","City":"Lansing","Code":"LAN","longitude":"-84.583333"},"color":"rgb(75,114,244)","size":10.0},{"label":"International","x":-217.20712280273438,"y":-306.9196472167969,"id":"94","attributes":{"latitude":"48.083333","City":"Wolf Point","Code":"OLF","longitude":"-105.566667"},"color":"rgb(47,131,247)","size":10.0},{"label":"Redding","x":452.8802185058594,"y":-54.96733474731445,"id":"177","attributes":{"latitude":"40.5","City":"Redding","Code":"RDD","longitude":"-122.3"},"color":"rgb(47,131,247)","size":10.0},{"label":"Bismarck","x":48.785003662109375,"y":207.33018493652344,"id":"21","attributes":{"latitude":"46.783333","City":"Bismarck","Code":"BIS","longitude":"-100.75"},"color":"rgb(60,123,245)","size":10.0},{"label":"Los Angeles International","x":57.643096923828125,"y":243.7949676513672,"id":"118","attributes":{"latitude":"33.9425","City":"Los Angeles","Code":"LAX","longitude":"-118.407222"},"color":"rgb(230,33,220)","size":10.0},{"label":"Greenville","x":-362.0608825683594,"y":362.3759460449219,"id":"76","attributes":{"latitude":"33.477222","City":"Greenville","Code":"GLH","longitude":"-90.985"},"color":"rgb(47,131,247)","size":10.0},{"label":"Northwest Arkansas Regional","x":-366.2283020019531,"y":-129.2202606201172,"id":"159","attributes":{"latitude":"36.281667","City":"Fayetteville, AR","Code":"XNA","longitude":"-94.306667"},"color":"rgb(77,113,244)","size":10.0},{"label":"Sarasota-Bradenton International Airport","x":472.6850280761719,"y":387.5339660644531,"id":"197","attributes":{"latitude":"27.395556","City":"Sarasota, FL","Code":"SRQ","longitude":"-82.554444"},"color":"rgb(51,128,246)","size":10.0},{"label":"Syracuse Hancock International Airport","x":-135.54373168945312,"y":334.0053405761719,"id":"210","attributes":{"latitude":"43.116667","City":"Syracuse","Code":"SYR","longitude":"-76.116667"},"color":"rgb(81,111,244)","size":10.0},{"label":"Dawson Community","x":152.98837280273438,"y":386.8544616699219,"id":"47","attributes":{"latitude":"47.133333","City":"Glendive","Code":"GDV","longitude":"-104.683333"},"color":"rgb(47,131,247)","size":10.0},{"label":"Westchester County Apt","x":-306.1272888183594,"y":-95.73887634277344,"id":"226","attributes":{"latitude":"41.066667","City":"White Plains","Code":"HPN","longitude":"-73.7"},"color":"rgb(52,127,246)","size":10.0},{"label":"Mc Carran Intl","x":359.7731018066406,"y":-32.98579788208008,"id":"127","attributes":{"latitude":"36.083333","City":"Las Vegas","Code":"LAS","longitude":"-115.166667"},"color":"rgb(80,111,244)","size":10.0},{"label":"Norfolk International Airport","x":-76.521484375,"y":-182.61131286621094,"id":"157","attributes":{"latitude":"36.9","City":"Norfolk","Code":"ORF","longitude":"-76.2"},"color":"rgb(71,117,245)","size":10.0},{"label":"South Bend Regional","x":-291.29986572265625,"y":161.0663299560547,"id":"204","attributes":{"latitude":"41.7","City":"South Bend","Code":"SBN","longitude":"-86.316667"},"color":"rgb(100,99,242)","size":10.0},{"label":"Myrtle Beach Afb","x":192.56619262695312,"y":415.6637268066406,"id":"151","attributes":{"latitude":"33.7","City":"Myrtle Beach","Code":"MYR","longitude":"-78.966667"},"color":"rgb(47,131,247)","size":10.0},{"label":"Lambert-St. Louis International","x":386.4663391113281,"y":135.5488739013672,"id":"111","attributes":{"latitude":"38.748611","City":"St Louis","Code":"STL","longitude":"-90.37"},"color":"rgb(108,95,241)","size":10.0},{"label":"Burlington International","x":411.9198303222656,"y":101.06285095214844,"id":"28","attributes":{"latitude":"44.471944","City":"Burlington","Code":"BTV","longitude":"-73.153333"},"color":"rgb(53,127,246)","size":10.0},{"label":"Newport News/williamsb","x":-382.94134521484375,"y":364.4848327636719,"id":"155","attributes":{"latitude":"37.133333","City":"Newport News","Code":"PHF","longitude":"-76.5"},"color":"rgb(47,131,247)","size":10.0},{"label":"Melbourne International Airport","x":298.1981506347656,"y":-101.20347595214844,"id":"129","attributes":{"latitude":"28.1","City":"Melbourne","Code":"MLB","longitude":"-80.633333"},"color":"rgb(47,131,247)","size":10.0},{"label":"Watertown","x":-146.0640869140625,"y":461.9314880371094,"id":"225","attributes":{"latitude":"44.916667","City":"Watertown","Code":"ATY","longitude":"-97.15"},"color":"rgb(47,131,247)","size":10.0},{"label":"Fanning Field","x":378.2937316894531,"y":-156.1907196044922,"id":"63","attributes":{"latitude":"43.516667","City":"Idaho Falls","Code":"IDA","longitude":"-112.066667"},"color":"rgb(66,119,245)","size":10.0},{"label":"Mineta San Jose International Airport","x":-406.0442199707031,"y":344.3648376464844,"id":"135","attributes":{"latitude":"37.352778","City":"San Jose","Code":"SJC","longitude":"-121.919444"},"color":"rgb(68,118,245)","size":10.0},{"label":"Municipal","x":-17.487398147583008,"y":-471.2438659667969,"id":"141","attributes":{"latitude":"43.883333","City":"La Crosse","Code":"LSE","longitude":"-91.25"},"color":"rgb(55,126,246)","size":10.0},{"label":"University Of Illinois Willard","x":-137.930419921875,"y":-122.62934875488281,"id":"220","attributes":{"latitude":"40.033333","City":"Champaign","Code":"CMI","longitude":"-88.283333"},"color":"rgb(47,131,247)","size":10.0},{"label":"Rogue Valley International - Medford Airport","x":-204.949462890625,"y":424.4915466308594,"id":"188","attributes":{"latitude":"42.366667","City":"Medford","Code":"MFR","longitude":"-122.866667"},"color":"rgb(47,131,247)","size":10.0},{"label":"Municipal/Baer Field","x":-447.16705322265625,"y":-351.02801513671875,"id":"149","attributes":{"latitude":"41.116667","City":"Fort Wayne","Code":"FWA","longitude":"-85.116667"},"color":"rgb(58,124,246)","size":10.0},{"label":"Roanoke Regional Airport","x":-130.36477661132812,"y":-2.192462205886841,"id":"186","attributes":{"latitude":"37.316667","City":"Roanoke","Code":"ROA","longitude":"-79.983333"},"color":"rgb(56,125,246)","size":10.0},{"label":"Walla Walla","x":43.615203857421875,"y":304.2256164550781,"id":"222","attributes":{"latitude":"46.1","City":"Walla Walla","Code":"ALW","longitude":"-118.3"},"color":"rgb(47,131,247)","size":10.0},{"label":"Tompkins County","x":-448.946533203125,"y":-53.18770217895508,"id":"215","attributes":{"latitude":"42.483333","City":"Ithaca","Code":"ITH","longitude":"-76.466667"},"color":"rgb(58,124,246)","size":10.0},{"label":"Gallatin Field","x":-17.485902786254883,"y":188.70176696777344,"id":"68","attributes":{"latitude":"45.7775","City":"Bozeman","Code":"BZN","longitude":"-111.153056"},"color":"rgb(97,102,242)","size":10.0},{"label":"Yakima Air Terminal","x":159.53884887695312,"y":235.0046844482422,"id":"232","attributes":{"latitude":"46.566667","City":"Yakima","Code":"YKM","longitude":"-120.533333"},"color":"rgb(47,131,247)","size":10.0},{"label":"Gainesville Regional","x":83.16458129882812,"y":-448.40234375,"id":"67","attributes":{"latitude":"29.683333","City":"Gainesville","Code":"GNV","longitude":"-82.266667"},"color":"rgb(47,131,247)","size":10.0},{"label":"Hartsfield-jackson Atlanta International","x":249.25302124023438,"y":441.7072448730469,"id":"80","attributes":{"latitude":"33.636667","City":"Atlanta, GA","Code":"ATL","longitude":"-84.428056"},"color":"rgb(251,157,32)","size":10.0},{"label":"Pendleton","x":-4.292085647583008,"y":175.64585876464844,"id":"167","attributes":{"latitude":"45.7","City":"Pendleton","Code":"PDT","longitude":"-118.833333"},"color":"rgb(47,131,247)","size":10.0},{"label":"Miami International Airport","x":-440.5450439453125,"y":254.82286071777344,"id":"132","attributes":{"latitude":"25.783333","City":"Miami","Code":"MIA","longitude":"-80.266667"},"color":"rgb(91,105,243)","size":10.0},{"label":"Albemarle","x":469.0890197753906,"y":128.59385681152344,"id":"3","attributes":{"latitude":"38.133333","City":"Charlottesville","Code":"CHO","longitude":"-78.45"},"color":"rgb(47,131,247)","size":10.0},{"label":"Bangor International Airport","x":-128.931640625,"y":73.86216735839844,"id":"12","attributes":{"latitude":"44.8","City":"Bangor","Code":"BGR","longitude":"-68.816667"},"color":"rgb(52,127,246)","size":10.0},{"label":"Des Moines International","x":255.54006958007812,"y":-57.1603889465332,"id":"49","attributes":{"latitude":"41.533889","City":"Des Moines, IA","Code":"DSM","longitude":"-93.663056"},"color":"rgb(97,102,242)","size":10.0},{"label":"Alpena County Regional","x":386.4843444824219,"y":-15.343401908874512,"id":"6","attributes":{"latitude":"45.083333","City":"Alpena","Code":"APN","longitude":"-83.55"},"color":"rgb(47,131,247)","size":10.0},{"label":"Municipal","x":-7.805910110473633,"y":-195.2587127685547,"id":"144","attributes":{"latitude":"46.433333","City":"Miles City","Code":"MLS","longitude":"-105.883333"},"color":"rgb(47,131,247)","size":10.0},{"label":"Bellingham","x":241.79544067382812,"y":-312.6114196777344,"id":"15","attributes":{"latitude":"48.8","City":"Bellingham","Code":"BLI","longitude":"-122.533333"},"color":"rgb(47,131,247)","size":10.0},{"label":"Philadelphia International","x":426.5840148925781,"y":393.1949157714844,"id":"168","attributes":{"latitude":"39.871944","City":"Philadelphia","Code":"PHL","longitude":"-75.241111"},"color":"rgb(86,108,243)","size":10.0},{"label":"Indianapolis International","x":149.99154663085938,"y":-405.5581970214844,"id":"87","attributes":{"latitude":"39.717222","City":"Indianapolis, IN","Code":"IND","longitude":"-86.294722"},"color":"rgb(139,77,239)","size":10.0},{"label":"Municipal","x":-90.65228271484375,"y":443.1028747558594,"id":"145","attributes":{"latitude":"32.5","City":"Monroe","Code":"MLU","longitude":"-92.033333"},"color":"rgb(68,118,245)","size":10.0},{"label":"Gulfport-Biloxi International","x":238.95309448242188,"y":-208.72056579589844,"id":"78","attributes":{"latitude":"30.4","City":"Gulfport","Code":"GPT","longitude":"-89.066667"},"color":"rgb(51,128,246)","size":10.0},{"label":"Washington Dulles International","x":-28.307039260864258,"y":490.7835998535156,"id":"223","attributes":{"latitude":"38.944444","City":"Washington, DC","Code":"IAD","longitude":"-77.455833"},"color":"rgb(78,112,244)","size":10.0},{"label":"Greater Binghamton","x":-102.51864624023438,"y":-318.3668518066406,"id":"73","attributes":{"latitude":"42.208611","City":"Binghamton, NY","Code":"BGM","longitude":"-75.979722"},"color":"rgb(47,131,247)","size":10.0},{"label":"Hopkins International","x":407.2705383300781,"y":65.71220397949219,"id":"84","attributes":{"latitude":"41.416667","City":"Cleveland","Code":"CLE","longitude":"-81.85"},"color":"rgb(214,34,233)","size":10.0},{"label":"Dannelly Fld","x":-398.5335693359375,"y":-115.04362487792969,"id":"46","attributes":{"latitude":"32.3","City":"Montgomery","Code":"MGM","longitude":"-86.4"},"color":"rgb(47,131,247)","size":10.0},{"label":"Mobile Regional Airport","x":-7.975557327270508,"y":-146.05738830566406,"id":"138","attributes":{"latitude":"30.691111","City":"Alabama, AL","Code":"MOB","longitude":"-88.242778"},"color":"rgb(54,126,246)","size":10.0},{"label":"Bob Hope","x":-136.68423461914062,"y":46.44675827026367,"id":"23","attributes":{"latitude":"34.2","City":"Burbank","Code":"BUR","longitude":"-118.35"},"color":"rgb(47,131,247)","size":10.0},{"label":"Emmet County","x":219.17794799804688,"y":-341.3343200683594,"id":"58","attributes":{"latitude":"45.566667","City":"Pellston","Code":"PLN","longitude":"-84.8"},"color":"rgb(47,131,247)","size":10.0},{"label":"Metropolitan Airport","x":-14.038698196411133,"y":344.2868347167969,"id":"131","attributes":{"latitude":"33.95","City":"Columbia, SC","Code":"CAE","longitude":"-81.116667"},"color":"rgb(57,124,246)","size":10.0},{"label":"Municipal","x":99.42691040039062,"y":256.8250427246094,"id":"147","attributes":{"latitude":"45.583333","City":"Saint Cloud","Code":"STC","longitude":"-94.183333"},"color":"rgb(47,131,247)","size":10.0},{"label":"Bush Field","x":-425.26416015625,"y":266.7573547363281,"id":"29","attributes":{"latitude":"33.366667","City":"Augusta","Code":"AGS","longitude":"-81.966667"},"color":"rgb(47,131,247)","size":10.0},{"label":"Intl Jetport","x":200.32705688476562,"y":233.8645477294922,"id":"95","attributes":{"latitude":"43.65","City":"Portland","Code":"PWM","longitude":"-70.3"},"color":"rgb(53,127,246)","size":10.0},{"label":"Chisholm","x":285.2784729003906,"y":-280.79541015625,"id":"40","attributes":{"latitude":"47.383333","City":"Chisholm","Code":"HIB","longitude":"-92.833333"},"color":"rgb(47,131,247)","size":10.0},{"label":"Lafayette Regional","x":149.13412475585938,"y":-269.6156921386719,"id":"110","attributes":{"latitude":"30.205278","City":"Lafayette, LA","Code":"LFT","longitude":"-91.9875"},"color":"rgb(72,116,244)","size":10.0},{"label":"Buffalo Niagara International","x":264.2241516113281,"y":19.806072235107422,"id":"27","attributes":{"latitude":"42.940556","City":"Buffalo, NY","Code":"BUF","longitude":"-78.732222"},"color":"rgb(60,123,245)","size":10.0},{"label":"Pierre","x":3.2300398349761963,"y":-325.78094482421875,"id":"170","attributes":{"latitude":"44.383333","City":"Pierre","Code":"PIR","longitude":"-100.283333"},"color":"rgb(47,131,247)","size":10.0},{"label":"John Wayne","x":40.647186279296875,"y":-309.1785583496094,"id":"103","attributes":{"latitude":"33.666667","City":"Santa Ana, CA","Code":"SNA","longitude":"-117.866667"},"color":"rgb(66,119,245)","size":10.0},{"label":"Hattiesburg-Laurel Regional","x":-428.01739501953125,"y":-430.2364196777344,"id":"81","attributes":{"latitude":"31.467222","City":"Hattiesburg/Laurel, MS","Code":"PIB","longitude":"-89.336944"},"color":"rgb(47,131,247)","size":10.0},{"label":"Greater Peoria","x":-323.6821594238281,"y":-43.4709358215332,"id":"74","attributes":{"latitude":"40.666667","City":"Peoria, IL","Code":"PIA","longitude":"-89.683333"},"color":"rgb(57,124,246)","size":10.0},{"label":"Eglin AFB","x":77.80526733398438,"y":339.1812438964844,"id":"55","attributes":{"latitude":"30.483333","City":"Valparaiso, FL","Code":"VPS","longitude":"-86.525278"},"color":"rgb(53,127,246)","size":10.0},{"label":"Billings","x":296.6712341308594,"y":490.6737365722656,"id":"18","attributes":{"latitude":"45.8","City":"Billings","Code":"BIL","longitude":"-108.533333"},"color":"rgb(236,71,162)","size":10.0},{"label":"Pittsburgh International","x":139.84677124023438,"y":-84.40858459472656,"id":"171","attributes":{"latitude":"40.491389","City":"Pittsburgh, PA","Code":"PIT","longitude":"-80.232778"},"color":"rgb(101,99,242)","size":10.0},{"label":"Port Columbus Intl","x":-305.6546936035156,"y":217.26780700683594,"id":"172","attributes":{"latitude":"40.0","City":"Columbus","Code":"CMH","longitude":"-82.883333"},"color":"rgb(134,80,239)","size":10.0},{"label":"Sawyer International","x":-51.709442138671875,"y":-204.04624938964844,"id":"199","attributes":{"latitude":"46.533333","City":"Marquette","Code":"MQT","longitude":"-87.566667"},"color":"rgb(65,120,245)","size":10.0},{"label":"International","x":-104.73480224609375,"y":-476.4787292480469,"id":"90","attributes":{"latitude":"47.5","City":"Great Falls","Code":"GTF","longitude":"-111.366667"},"color":"rgb(63,121,245)","size":10.0},{"label":"Dothan Arpt","x":-134.1343994140625,"y":-251.17564392089844,"id":"52","attributes":{"latitude":"31.316667","City":"Dothan","Code":"DHN","longitude":"-85.45"},"color":"rgb(47,131,247)","size":10.0},{"label":"Mc Ghee Tyson","x":-138.19107055664062,"y":-330.7928771972656,"id":"128","attributes":{"latitude":"35.95","City":"Knoxville","Code":"TYS","longitude":"-83.916667"},"color":"rgb(96,102,242)","size":10.0},{"label":"Dallas/Fort Worth International","x":-343.9007873535156,"y":-407.667724609375,"id":"44","attributes":{"latitude":"32.896944","City":"Dallas, TX","Code":"DFW","longitude":"-97.038056"},"color":"rgb(112,93,241)","size":10.0},{"label":"Colorado Springs","x":-275.8513488769531,"y":-424.5478210449219,"id":"43","attributes":{"latitude":"38.816667","City":"Colorado Springs","Code":"COS","longitude":"-104.716667"},"color":"rgb(53,127,246)","size":10.0},{"label":"Eugene","x":-64.68789672851562,"y":-363.1951904296875,"id":"60","attributes":{"latitude":"44.116667","City":"Eugene","Code":"EUG","longitude":"-123.216667"},"color":"rgb(47,131,247)","size":10.0},{"label":"Savannah/Hilton Head","x":-221.97824096679688,"y":490.9684143066406,"id":"198","attributes":{"latitude":"32.133333","City":"Savannah","Code":"SAV","longitude":"-81.2"},"color":"rgb(51,128,246)","size":10.0},{"label":"Central Wisconsin","x":318.2993469238281,"y":362.0098571777344,"id":"33","attributes":{"latitude":"44.769444","City":"Wausau","Code":"CWA","longitude":"-89.683056"},"color":"rgb(47,131,247)","size":10.0},{"label":"Chippewa County","x":498.3257141113281,"y":473.1037292480469,"id":"38","attributes":{"latitude":"46.25","City":"Sault Ste Marie","Code":"CIU","longitude":"-84.466667"},"color":"rgb(54,126,246)","size":10.0},{"label":"Chippewa Valley Regional Airport","x":234.08273315429688,"y":251.3932342529297,"id":"39","attributes":{"latitude":"44.865833","City":"Eau Claire, WI","Code":"EAU","longitude":"-91.484167"},"color":"rgb(47,131,247)","size":10.0},{"label":"Bradley International","x":233.28775024414062,"y":333.9968566894531,"id":"25","attributes":{"latitude":"41.938889","City":"Windsor Locks, CT","Code":"BDL","longitude":"-72.683333"},"color":"rgb(66,119,245)","size":10.0},{"label":"Municipal","x":143.00949096679688,"y":-471.10321044921875,"id":"146","attributes":{"latitude":"33.833333","City":"Palm Springs","Code":"PSP","longitude":"-116.5"},"color":"rgb(57,125,246)","size":10.0},{"label":"Stewart","x":237.54098510742188,"y":475.7586364746094,"id":"208","attributes":{"latitude":"41.5","City":"Newburgh","Code":"SWF","longitude":"-74.016667"},"color":"rgb(56,125,246)","size":10.0},{"label":"Newark Liberty International","x":-215.93817138671875,"y":-148.1984100341797,"id":"154","attributes":{"latitude":"40.6925","City":"Newark","Code":"EWR","longitude":"-74.168611"},"color":"rgb(220,31,232)","size":10.0},{"label":"Austin-bergstrom International","x":250.88650512695312,"y":184.55247497558594,"id":"9","attributes":{"latitude":"30.194444","City":"Austin","Code":"AUS","longitude":"-97.67"},"color":"rgb(91,105,243)","size":10.0},{"label":"Bemidji","x":-342.2048034667969,"y":177.96885681152344,"id":"16","attributes":{"latitude":"47.516667","City":"Bemidji","Code":"BJI","longitude":"-94.933333"},"color":"rgb(47,131,247)","size":10.0},{"label":"Duluth International","x":-373.2621765136719,"y":9.303692817687988,"id":"53","attributes":{"latitude":"46.833333","City":"Duluth","Code":"DLH","longitude":"-92.183333"},"color":"rgb(74,115,244)","size":10.0},{"label":"International","x":-403.0254211425781,"y":-393.8313293457031,"id":"88","attributes":{"latitude":"42.083333","City":"Erie","Code":"ERI","longitude":"-80.183333"},"color":"rgb(62,122,245)","size":10.0},{"label":"Oneida County","x":167.18569946289062,"y":-10.434496879577637,"id":"161","attributes":{"latitude":"45.633333","City":"Rhinelander","Code":"RHI","longitude":"-89.45"},"color":"rgb(47,131,247)","size":10.0},{"label":"Regional","x":145.46817016601562,"y":-305.1694641113281,"id":"181","attributes":{"latitude":"44.033333","City":"Rapid City","Code":"RAP","longitude":"-103.05"},"color":"rgb(58,124,246)","size":10.0},{"label":"Richland Municipal","x":-308.9346618652344,"y":-367.28387451171875,"id":"184","attributes":{"latitude":"47.716667","City":"Sidney","Code":"SDY","longitude":"-104.183333"},"color":"rgb(47,131,247)","size":10.0},{"label":"Bert Mooney Airport","x":488.2169494628906,"y":-220.74510192871094,"id":"17","attributes":{"latitude":"45.954722","City":"Butte,","Code":"BTM","longitude":"-112.4975"},"color":"rgb(47,131,247)","size":10.0},{"label":"Kingsley Field","x":-62.558380126953125,"y":208.68601989746094,"id":"108","attributes":{"latitude":"42.166667","City":"Klamath Falls","Code":"LMT","longitude":"-121.733333"},"color":"rgb(47,131,247)","size":10.0},{"label":"Greater Rochester International","x":-121.288330078125,"y":-142.1272430419922,"id":"75","attributes":{"latitude":"43.118889","City":"Rochester, NY","Code":"ROC","longitude":"-77.6725"},"color":"rgb(78,112,244)","size":10.0},{"label":"El Paso International Airport","x":116.19552612304688,"y":-188.30186462402344,"id":"56","attributes":{"latitude":"31.8","City":"El Paso","Code":"ELP","longitude":"-106.383333"},"color":"rgb(47,131,247)","size":10.0},{"label":"City County","x":-213.38851928710938,"y":-192.77662658691406,"id":"42","attributes":{"latitude":"48.55","City":"Havre","Code":"HVR","longitude":"-109.766667"},"color":"rgb(47,131,247)","size":10.0},{"label":"Lehigh Valley International","x":-0.5049150586128235,"y":374.7697448730469,"id":"112","attributes":{"latitude":"40.652222","City":"Allentown","Code":"ABE","longitude":"-75.440278"},"color":"rgb(52,127,246)","size":10.0},{"label":"Central Illinois Regional Airport at Bloomington-Normal","x":255.60073852539062,"y":-59.71657180786133,"id":"32","attributes":{"latitude":"40.477222","City":"Bloomington/Normal, IL","Code":"BMI","longitude":"-88.915833"},"color":"rgb(52,127,246)","size":10.0},{"label":"Cherry Capital Airport","x":-64.83731079101562,"y":89.64866638183594,"id":"36","attributes":{"latitude":"44.741389","City":"Traverse City","Code":"TVC","longitude":"-85.582222"},"color":"rgb(87,107,243)","size":10.0},{"label":"Grand Forks","x":144.77383422851562,"y":-319.4505310058594,"id":"72","attributes":{"latitude":"47.95","City":"Grand Forks","Code":"GFK","longitude":"-97.183333"},"color":"rgb(75,114,244)","size":10.0},{"label":"Spokane International","x":426.9316711425781,"y":294.5186462402344,"id":"206","attributes":{"latitude":"47.619722","City":"Spokane","Code":"GEG","longitude":"-117.533889"},"color":"rgb(58,124,246)","size":10.0},{"label":"Elmira Corning Regional","x":356.8707580566406,"y":249.8123016357422,"id":"57","attributes":{"latitude":"42.166667","City":"Corning, NY","Code":"ELM","longitude":"-76.9"},"color":"rgb(47,131,247)","size":10.0},{"label":"San Diego International Airport","x":-353.3519592285156,"y":48.65458297729492,"id":"194","attributes":{"latitude":"32.733333","City":"San Diego","Code":"SAN","longitude":"-117.183333"},"color":"rgb(72,116,244)","size":10.0},{"label":"Salt Lake City International","x":8.721586227416992,"y":351.3988952636719,"id":"192","attributes":{"latitude":"40.788333","City":"Salt Lake City, UT","Code":"SLC","longitude":"-111.966667"},"color":"rgb(222,29,232)","size":10.0},{"label":"Eppley Airfield","x":411.9953308105469,"y":-101.42045593261719,"id":"59","attributes":{"latitude":"41.3","City":"Omaha","Code":"OMA","longitude":"-95.9"},"color":"rgb(104,97,242)","size":10.0},{"label":"James Cox Dayton Intl","x":-210.44949340820312,"y":3.814984083175659,"id":"98","attributes":{"latitude":"39.75","City":"Dayton, Oh","Code":"DAY","longitude":"-84.183333"},"color":"rgb(83,109,243)","size":10.0},{"label":"Lincoln","x":60.819915771484375,"y":-361.9996643066406,"id":"114","attributes":{"latitude":"40.850833","City":"Lincoln, NE","Code":"LNK","longitude":"-96.759167"},"color":"rgb(57,124,246)","size":10.0},{"label":"Municipal","x":113.50967407226562,"y":357.3835144042969,"id":"140","attributes":{"latitude":"45.45","City":"Aberdeen","Code":"ABR","longitude":"-98.433333"},"color":"rgb(47,131,247)","size":10.0},{"label":"Detroit Metropolitan Wayne County","x":-161.46713256835938,"y":219.62461853027344,"id":"50","attributes":{"latitude":"42.2125","City":"Detroit, MI","Code":"DTW","longitude":"-83.353333"},"color":"rgb(253,167,17)","size":10.0},{"label":"Huntsville International - Carl T. Jones Field","x":-267.2192687988281,"y":236.00315856933594,"id":"86","attributes":{"latitude":"34.637222","City":"Huntsville, AL","Code":"HSV","longitude":"-86.775"},"color":"rgb(60,123,245)","size":10.0},{"label":"Nashville International","x":41.578704833984375,"y":-377.3434753417969,"id":"152","attributes":{"latitude":"36.124444","City":"Nashville, TN","Code":"BNA","longitude":"-86.678056"},"color":"rgb(107,95,241)","size":10.0},{"label":"Dane County Regional","x":121.52297973632812,"y":-465.85308837890625,"id":"45","attributes":{"latitude":"43.139722","City":"Madison","Code":"MSN","longitude":"-89.3375"},"color":"rgb(108,95,241)","size":10.0},{"label":"Charlotte Douglas","x":-482.4964904785156,"y":-7.003405570983887,"id":"35","attributes":{"latitude":"35.216667","City":"Charlotte","Code":"CLT","longitude":"-80.933333"},"color":"rgb(106,96,242)","size":10.0},{"label":"Jefferson County","x":46.999542236328125,"y":267.9192199707031,"id":"100","attributes":{"latitude":"30.083333","City":"Beaumont","Code":"BPT","longitude":"-94.1"},"color":"rgb(47,131,247)","size":10.0},{"label":"Tucson International Airport","x":196.60336303710938,"y":294.2366027832031,"id":"218","attributes":{"latitude":"32.116111","City":"Tucson, AZ","Code":"TUS","longitude":"-110.941111"},"color":"rgb(56,125,246)","size":10.0},{"label":"Seattle-Tacoma International","x":290.9605407714844,"y":-490.5867614746094,"id":"200","attributes":{"latitude":"47.448889","City":"Seattle, WA","Code":"SEA","longitude":"-122.309444"},"color":"rgb(245,125,80)","size":10.0},{"label":"Tallahassee Regional Airport","x":-384.1280212402344,"y":308.2782897949219,"id":"212","attributes":{"latitude":"30.396389","City":"Tallahassee","Code":"TLH","longitude":"-84.350278"},"color":"rgb(54,126,246)","size":10.0},{"label":"Louis Armstrong New OrlÃ©ans International Airport","x":-331.90472412109375,"y":170.4352264404297,"id":"119","attributes":{"latitude":"29.993333","City":"New Orleans","Code":"MSY","longitude":"-90.258056"},"color":"rgb(75,114,244)","size":10.0},{"label":"Oakland International Airport","x":-487.97003173828125,"y":351.1974792480469,"id":"160","attributes":{"latitude":"37.716667","City":"Oakland","Code":"OAK","longitude":"-122.216667"},"color":"rgb(47,131,247)","size":10.0},{"label":"Fort Lauderdale/hollywood International","x":-469.2185974121094,"y":310.4016418457031,"id":"65","attributes":{"latitude":"26.0725","City":"Fort Lauderdale, FL","Code":"FLL","longitude":"-80.152778"},"color":"rgb(84,109,243)","size":10.0},{"label":"Helena","x":342.8044738769531,"y":99.09819030761719,"id":"83","attributes":{"latitude":"46.6","City":"Helena","Code":"HLN","longitude":"-111.983333"},"color":"rgb(58,124,246)","size":10.0},{"label":"Pullman-Moscow Regional Airport","x":393.2621154785156,"y":-148.2652130126953,"id":"174","attributes":{"latitude":"46.75","City":"Pullman","Code":"PUW","longitude":"-117.116667"},"color":"rgb(47,131,247)","size":10.0},{"label":"Regional","x":-331.0452575683594,"y":29.556255340576172,"id":"180","attributes":{"latitude":"30.466667","City":"Pensacola","Code":"PNS","longitude":"-87.183333"},"color":"rgb(58,124,246)","size":10.0},{"label":"William P Hobby","x":138.75460815429688,"y":-286.2397766113281,"id":"230","attributes":{"latitude":"29.645556","City":"Houston, TX","Code":"HOU","longitude":"-95.278889"},"color":"rgb(47,131,247)","size":10.0},{"label":"Outagamie County","x":37.202911376953125,"y":-435.6997375488281,"id":"164","attributes":{"latitude":"44.266667","City":"Appleton","Code":"ATW","longitude":"-88.516667"},"color":"rgb(96,102,242)","size":10.0},{"label":"Joe Foss Field Airport","x":165.52951049804688,"y":186.08750915527344,"id":"101","attributes":{"latitude":"43.581944","City":"Sioux Falls","Code":"FSD","longitude":"-96.741944"},"color":"rgb(55,125,246)","size":10.0},{"label":"Portland International","x":-464.8713073730469,"y":-497.62872314453125,"id":"173","attributes":{"latitude":"45.588611","City":"Portland, OR","Code":"PDX","longitude":"-122.5975"},"color":"rgb(233,52,191)","size":10.0},{"label":"Eagle County","x":419.9811096191406,"y":-134.53810119628906,"id":"54","attributes":{"latitude":"39.633333","City":"Vail/Eagle","Code":"EGE","longitude":"-106.916667"},"color":"rgb(47,131,247)","size":10.0},{"label":"Lovell Field","x":-158.50564575195312,"y":-99.90943908691406,"id":"122","attributes":{"latitude":"35.035278","City":"Chattanooga,TN","Code":"CHA","longitude":"-85.203889"},"color":"rgb(72,116,244)","size":10.0},{"label":"Louisville International","x":402.5783996582031,"y":-154.74436950683594,"id":"120","attributes":{"latitude":"38.174444","City":"Louisville, KY","Code":"SDF","longitude":"-85.736111"},"color":"rgb(96,102,242)","size":10.0},{"label":"Arcata","x":46.572967529296875,"y":178.78208923339844,"id":"7","attributes":{"latitude":"40.983333","City":"Arcata","Code":"ACV","longitude":"-124.1"},"color":"rgb(47,131,247)","size":10.0},{"label":"Albuquerque International","x":29.346342086791992,"y":-250.6461944580078,"id":"4","attributes":{"latitude":"35.040278","City":"Albuquerque","Code":"ABQ","longitude":"-106.609167"},"color":"rgb(52,127,246)","size":10.0},{"label":"Ronald Reagan Washington National Airport","x":-130.91757202148438,"y":-257.0950927734375,"id":"189","attributes":{"latitude":"38.851944","City":"Washington, DC","Code":"DCA","longitude":"-77.037778"},"color":"rgb(109,94,241)","size":10.0},{"label":"Raleigh-durham International Airport","x":-93.74432373046875,"y":-234.93748474121094,"id":"176","attributes":{"latitude":"35.877778","City":"Raleigh/Durham, NC","Code":"RDU","longitude":"-78.7875"},"color":"rgb(101,99,242)","size":10.0},{"label":"Alexandria International","x":-422.47149658203125,"y":-459.2704162597656,"id":"5","attributes":{"latitude":"31.3275","City":"Alexandria, LA","Code":"AEX","longitude":"-92.548611"},"color":"rgb(59,123,245)","size":10.0},{"label":"Bay County","x":486.8190002441406,"y":-102.58808898925781,"id":"14","attributes":{"latitude":"30.216667","City":"Panama City","Code":"PFN","longitude":"-85.683333"},"color":"rgb(56,125,246)","size":10.0},{"label":"Fort Dodge Regional","x":-431.7994079589844,"y":-60.48738479614258,"id":"64","attributes":{"latitude":"42.551111","City":"Fort Dodge, IA","Code":"FOD","longitude":"-94.191944"},"color":"rgb(47,131,247)","size":10.0},{"label":"George Bush Intercontinental","x":-325.3067932128906,"y":288.6361999511719,"id":"70","attributes":{"latitude":"29.984444","City":"Houston","Code":"IAH","longitude":"-95.341389"},"color":"rgb(239,87,137)","size":10.0},{"label":"Midway","x":169.64627075195312,"y":24.939373016357422,"id":"134","attributes":{"latitude":"41.783333","City":"Chicago","Code":"MDW","longitude":"-87.75"},"color":"rgb(96,102,242)","size":10.0},{"label":"Hector Field","x":235.68984985351562,"y":-43.31804275512695,"id":"82","attributes":{"latitude":"46.916667","City":"Fargo","Code":"FAR","longitude":"-96.816667"},"color":"rgb(85,108,243)","size":10.0},{"label":"La Guardia","x":56.535430908203125,"y":264.2540588378906,"id":"109","attributes":{"latitude":"40.766667","City":"New York","Code":"LGA","longitude":"-73.866667"},"color":"rgb(101,99,242)","size":10.0},{"label":"Long Beach Municipal","x":-108.88027954101562,"y":-310.5672912597656,"id":"116","attributes":{"latitude":"33.816667","City":"Long Beach","Code":"LGB","longitude":"-118.15"},"color":"rgb(47,131,247)","size":10.0},{"label":"Missoula International","x":-148.92446899414062,"y":-177.6674346923828,"id":"137","attributes":{"latitude":"46.916667","City":"Missoula","Code":"MSO","longitude":"-114.083333"},"color":"rgb(56,125,246)","size":10.0},{"label":"Kent County Intl","x":-160.27102661132812,"y":-262.4092712402344,"id":"106","attributes":{"latitude":"42.883333","City":"Grand Rapids","Code":"GRR","longitude":"-85.533333"},"color":"rgb(107,95,241)","size":10.0},{"label":"Cincinnati/northern Kentucky","x":208.77413940429688,"y":-320.3431091308594,"id":"41","attributes":{"latitude":"39.048889","City":"Covington, KY","Code":"CVG","longitude":"-84.667778"},"color":"rgb(230,36,216)","size":10.0},{"label":"General Mitchell International","x":304.1410217285156,"y":265.9960632324219,"id":"69","attributes":{"latitude":"42.95","City":"Milwaukee","Code":"MKE","longitude":"-87.9"},"color":"rgb(103,98,242)","size":10.0},{"label":"Tri-cities","x":-272.1038513183594,"y":-48.32405471801758,"id":"216","attributes":{"latitude":"46.264722","City":"Pasco, WA","Code":"PSC","longitude":"-119.119167"},"color":"rgb(47,131,247)","size":10.0},{"label":"Springfield-Branson Rg","x":200.10501098632812,"y":1.4156922101974487,"id":"207","attributes":{"latitude":"37.25","City":"Springfield","Code":"SGF","longitude":"-93.383333"},"color":"rgb(73,115,244)","size":10.0},{"label":"Jamestown","x":-454.66845703125,"y":280.2414855957031,"id":"99","attributes":{"latitude":"46.933333","City":"Jamestown","Code":"JMS","longitude":"-98.683333"},"color":"rgb(52,127,246)","size":10.0},{"label":"Sheffield","x":-160.31781005859375,"y":-238.6013641357422,"id":"201","attributes":{"latitude":"34.75","City":"Sheffield","Code":"MSL","longitude":"-87.616667"},"color":"rgb(47,131,247)","size":10.0},{"label":"Mid-Continent","x":-112.94317626953125,"y":154.90501403808594,"id":"133","attributes":{"latitude":"37.65","City":"Wichita","Code":"ICT","longitude":"-97.433333"},"color":"rgb(80,111,244)","size":10.0},{"label":"Wilmington International","x":-295.5552673339844,"y":-490.00201416015625,"id":"231","attributes":{"latitude":"34.270556","City":"Wilmington","Code":"ILM","longitude":"-77.9025"},"color":"rgb(47,131,247)","size":10.0},{"label":"Fresno Air Terminal Airport","x":34.816070556640625,"y":218.59605407714844,"id":"66","attributes":{"latitude":"36.766667","City":"Fresno","Code":"FAT","longitude":"-119.716667"},"color":"rgb(47,131,247)","size":10.0},{"label":"Southwest Florida Reg","x":-216.79327392578125,"y":348.3409729003906,"id":"205","attributes":{"latitude":"26.542222","City":"Fort Myers","Code":"RSW","longitude":"-81.755278"},"color":"rgb(76,113,244)","size":10.0},{"label":"Kalamazoo/Battle Creek Intl","x":471.9867248535156,"y":-479.2361145019531,"id":"104","attributes":{"latitude":"42.235","City":"Kalamazoo","Code":"AZO","longitude":"-85.551944"},"color":"rgb(88,107,243)","size":10.0},{"label":"Regional","x":455.1634216308594,"y":-415.5290222167969,"id":"179","attributes":{"latitude":"35.333333","City":"Fort Smith","Code":"FSM","longitude":"-94.366667"},"color":"rgb(65,120,245)","size":10.0},{"label":"Monterey Peninsula","x":-328.0836181640625,"y":-249.27845764160156,"id":"139","attributes":{"latitude":"36.583333","City":"Monterey","Code":"MRY","longitude":"-121.85"},"color":"rgb(47,131,247)","size":10.0},{"label":"Logan International","x":418.5063781738281,"y":170.69200134277344,"id":"115","attributes":{"latitude":"42.363056","City":"Boston","Code":"BOS","longitude":"-71.0"},"color":"rgb(102,98,242)","size":10.0},{"label":"Roberts Field","x":256.3733825683594,"y":-115.55311584472656,"id":"187","attributes":{"latitude":"44.25","City":"Redmond","Code":"RDM","longitude":"-121.15"},"color":"rgb(47,131,247)","size":10.0},{"label":"Sky Harbor Intl","x":392.3721618652344,"y":445.4305114746094,"id":"203","attributes":{"latitude":"33.433333","City":"Phoenix","Code":"PHX","longitude":"-112.033333"},"color":"rgb(78,112,244)","size":10.0},{"label":"Devils Lake","x":52.296539306640625,"y":-73.54084777832031,"id":"51","attributes":{"latitude":"48.116667","City":"Devils Lake","Code":"DVL","longitude":"-98.9"},"color":"rgb(52,127,246)","size":10.0},{"label":"Chicago O\u0027hare International","x":-292.77191162109375,"y":202.22972106933594,"id":"37","attributes":{"latitude":"41.978611","City":"Chicago, Il","Code":"ORD","longitude":"-87.904722"},"color":"rgb(125,85,240)","size":10.0},{"label":"Muskegon","x":-316.3155822753906,"y":133.0437469482422,"id":"150","attributes":{"latitude":"43.166667","City":"Muskegon","Code":"MKG","longitude":"-86.233333"},"color":"rgb(54,126,246)","size":10.0}],"edges":[{"source":"134","target":"80","id":"611","attributes":{},"color":"rgb(173,129,137)","size":1.0},{"source":"87","target":"30","id":"331","attributes":{},"color":"rgb(107,95,241)","size":1.0},{"source":"93","target":"157","id":"359","attributes":{},"color":"rgb(73,115,244)","size":1.0},{"source":"213","target":"87","id":"1223","attributes":{},"color":"rgb(112,92,241)","size":1.0},{"source":"114","target":"22","id":"466","attributes":{},"color":"rgb(78,112,244)","size":1.0},{"source":"198","target":"44","id":"1087","attributes":{},"color":"rgb(81,110,243)","size":1.0},{"source":"127","target":"0","id":"521","attributes":{},"color":"rgb(84,109,243)","size":1.0},{"source":"136","target":"2","id":"622","attributes":{},"color":"rgb(157,151,122)","size":1.0},{"source":"192","target":"59","id":"1017","attributes":{},"color":"rgb(163,63,237)","size":1.0},{"source":"136","target":"37","id":"641","attributes":{},"color":"rgb(190,132,120)","size":1.0},{"source":"200","target":"116","id":"1118","attributes":{},"color":"rgb(146,128,163)","size":1.0},{"source":"154","target":"87","id":"770","attributes":{},"color":"rgb(179,54,235)","size":1.0},{"source":"195","target":"118","id":"1076","attributes":{},"color":"rgb(158,70,231)","size":1.0},{"source":"84","target":"9","id":"296","attributes":{},"color":"rgb(152,69,238)","size":1.0},{"source":"102","target":"50","id":"397","attributes":{},"color":"rgb(164,140,130)","size":1.0},{"source":"109","target":"80","id":"444","attributes":{},"color":"rgb(176,128,137)","size":1.0},{"source":"229","target":"50","id":"1283","attributes":{},"color":"rgb(158,143,131)","size":1.0},{"source":"70","target":"59","id":"207","attributes":{},"color":"rgb(171,92,189)","size":1.0},{"source":"140","target":"99","id":"708","attributes":{},"color":"rgb(49,129,246)","size":1.0},{"source":"105","target":"50","id":"416","attributes":{},"color":"rgb(183,129,129)","size":1.0},{"source":"134","target":"84","id":"612","attributes":{},"color":"rgb(155,68,237)","size":1.0},{"source":"180","target":"80","id":"945","attributes":{},"color":"rgb(154,140,139)","size":1.0},{"source":"130","target":"11","id":"546","attributes":{},"color":"rgb(167,112,165)","size":1.0},{"source":"109","target":"105","id":"447","attributes":{},"color":"rgb(107,95,241)","size":1.0},{"source":"192","target":"18","id":"1012","attributes":{},"color":"rgb(229,50,197)","size":1.0},{"source":"194","target":"189","id":"1065","attributes":{},"color":"rgb(90,105,242)","size":1.0},{"source":"73","target":"50","id":"221","attributes":{},"color":"rgb(150,149,132)","size":1.0},{"source":"136","target":"68","id":"659","attributes":{},"color":"rgb(176,140,121)","size":1.0},{"source":"176","target":"130","id":"929","attributes":{},"color":"rgb(173,109,165)","size":1.0},{"source":"197","target":"80","id":"1085","attributes":{},"color":"rgb(151,142,139)","size":1.0},{"source":"190","target":"70","id":"998","attributes":{},"color":"rgb(146,106,191)","size":1.0},{"source":"27","target":"41","id":"46","attributes":{},"color":"rgb(145,79,230)","size":1.0},{"source":"134","target":"192","id":"615","attributes":{},"color":"rgb(159,65,237)","size":1.0},{"source":"70","target":"44","id":"203","attributes":{},"color":"rgb(175,90,189)","size":1.0},{"source":"218","target":"59","id":"1240","attributes":{},"color":"rgb(80,111,244)","size":1.0},{"source":"61","target":"70","id":"173","attributes":{},"color":"rgb(163,97,190)","size":1.0},{"source":"136","target":"53","id":"652","attributes":{},"color":"rgb(164,147,122)","size":1.0},{"source":"200","target":"71","id":"1112","attributes":{},"color":"rgb(151,125,163)","size":1.0},{"source":"203","target":"50","id":"1149","attributes":{},"color":"rgb(165,139,130)","size":1.0},{"source":"219","target":"50","id":"1248","attributes":{},"color":"rgb(167,138,130)","size":1.0},{"source":"41","target":"193","id":"91","attributes":{},"color":"rgb(149,77,230)","size":1.0},{"source":"84","target":"50","id":"306","attributes":{},"color":"rgb(233,100,125)","size":1.0},{"source":"96","target":"98","id":"373","attributes":{},"color":"rgb(83,109,243)","size":1.0},{"source":"154","target":"130","id":"784","attributes":{},"color":"rgb(232,75,160)","size":1.0},{"source":"41","target":"226","id":"94","attributes":{},"color":"rgb(141,81,231)","size":1.0},{"source":"84","target":"35","id":"302","attributes":{},"color":"rgb(160,65,237)","size":1.0},{"source":"105","target":"80","id":"419","attributes":{},"color":"rgb(182,124,136)","size":1.0},{"source":"136","target":"16","id":"628","attributes":{},"color":"rgb(151,155,123)","size":1.0},{"source":"126","target":"70","id":"520","attributes":{},"color":"rgb(143,109,192)","size":1.0},{"source":"192","target":"9","id":"1010","attributes":{},"color":"rgb(156,67,237)","size":1.0},{"source":"80","target":"0","id":"242","attributes":{},"color":"rgb(169,132,137)","size":1.0},{"source":"61","target":"41","id":"171","attributes":{},"color":"rgb(158,71,229)","size":1.0},{"source":"102","target":"118","id":"400","attributes":{},"color":"rgb(152,73,232)","size":1.0},{"source":"162","target":"80","id":"811","attributes":{},"color":"rgb(149,144,139)","size":1.0},{"source":"21","target":"36","id":"35","attributes":{},"color":"rgb(73,115,244)","size":1.0},{"source":"50","target":"9","id":"126","attributes":{},"color":"rgb(172,136,130)","size":1.0},{"source":"173","target":"158","id":"913","attributes":{},"color":"rgb(140,91,219)","size":1.0},{"source":"218","target":"25","id":"1239","attributes":{},"color":"rgb(61,122,245)","size":1.0},{"source":"130","target":"80","id":"572","attributes":{},"color":"rgb(248,138,60)","size":1.0},{"source":"70","target":"69","id":"209","attributes":{},"color":"rgb(171,92,189)","size":1.0},{"source":"176","target":"136","id":"930","attributes":{},"color":"rgb(178,139,121)","size":1.0},{"source":"119","target":"41","id":"490","attributes":{},"color":"rgb(152,75,230)","size":1.0},{"source":"136","target":"26","id":"634","attributes":{},"color":"rgb(153,153,123)","size":1.0},{"source":"171","target":"41","id":"870","attributes":{},"color":"rgb(165,67,229)","size":1.0},{"source":"12","target":"204","id":"26","attributes":{},"color":"rgb(76,113,244)","size":1.0},{"source":"14","target":"159","id":"29","attributes":{},"color":"rgb(66,119,245)","size":1.0},{"source":"118","target":"50","id":"481","attributes":{},"color":"rgb(241,100,118)","size":1.0},{"source":"76","target":"22","id":"232","attributes":{},"color":"rgb(73,115,244)","size":1.0},{"source":"206","target":"24","id":"1180","attributes":{},"color":"rgb(84,109,243)","size":1.0},{"source":"192","target":"71","id":"1022","attributes":{},"color":"rgb(139,77,239)","size":1.0},{"source":"175","target":"130","id":"921","attributes":{},"color":"rgb(159,117,166)","size":1.0},{"source":"189","target":"21","id":"980","attributes":{},"color":"rgb(84,108,243)","size":1.0},{"source":"165","target":"80","id":"841","attributes":{},"color":"rgb(151,142,139)","size":1.0},{"source":"194","target":"41","id":"1056","attributes":{},"color":"rgb(151,76,230)","size":1.0},{"source":"130","target":"127","id":"592","attributes":{},"color":"rgb(162,115,166)","size":1.0},{"source":"173","target":"23","id":"896","attributes":{},"color":"rgb(140,91,219)","size":1.0},{"source":"174","target":"24","id":"917","attributes":{},"color":"rgb(78,112,244)","size":1.0},{"source":"201","target":"113","id":"1142","attributes":{},"color":"rgb(47,131,247)","size":1.0},{"source":"169","target":"136","id":"864","attributes":{},"color":"rgb(164,147,122)","size":1.0},{"source":"50","target":"10","id":"127","attributes":{},"color":"rgb(175,134,129)","size":1.0},{"source":"181","target":"136","id":"951","attributes":{},"color":"rgb(156,151,123)","size":1.0},{"source":"117","target":"0","id":"477","attributes":{},"color":"rgb(67,119,245)","size":1.0},{"source":"130","target":"82","id":"574","attributes":{},"color":"rgb(165,114,165)","size":1.0},{"source":"101","target":"191","id":"395","attributes":{},"color":"rgb(64,120,245)","size":1.0},{"source":"74","target":"185","id":"224","attributes":{},"color":"rgb(73,114,244)","size":1.0},{"source":"203","target":"200","id":"1160","attributes":{},"color":"rgb(161,118,162)","size":1.0},{"source":"136","target":"92","id":"674","attributes":{},"color":"rgb(153,153,123)","size":1.0},{"source":"152","target":"130","id":"740","attributes":{},"color":"rgb(176,107,164)","size":1.0},{"source":"193","target":"130","id":"1052","attributes":{},"color":"rgb(157,119,166)","size":1.0},{"source":"204","target":"80","id":"1164","attributes":{},"color":"rgb(175,128,137)","size":1.0},{"source":"223","target":"70","id":"1263","attributes":{},"color":"rgb(158,99,190)","size":1.0},{"source":"154","target":"44","id":"759","attributes":{},"color":"rgb(166,62,236)","size":1.0},{"source":"93","target":"111","id":"358","attributes":{},"color":"rgb(91,104,242)","size":1.0},{"source":"86","target":"41","id":"322","attributes":{},"color":"rgb(145,79,230)","size":1.0},{"source":"173","target":"160","id":"914","attributes":{},"color":"rgb(140,91,219)","size":1.0},{"source":"131","target":"219","id":"597","attributes":{},"color":"rgb(69,117,245)","size":1.0},{"source":"10","target":"8","id":"15","attributes":{},"color":"rgb(77,113,244)","size":1.0},{"source":"50","target":"27","id":"134","attributes":{},"color":"rgb(156,145,131)","size":1.0},{"source":"152","target":"136","id":"741","attributes":{},"color":"rgb(181,137,120)","size":1.0},{"source":"21","target":"49","id":"36","attributes":{},"color":"rgb(78,112,243)","size":1.0},{"source":"160","target":"70","id":"806","attributes":{},"color":"rgb(143,109,192)","size":1.0},{"source":"80","target":"52","id":"269","attributes":{},"color":"rgb(149,144,139)","size":1.0},{"source":"233","target":"136","id":"1294","attributes":{},"color":"rgb(151,155,123)","size":1.0},{"source":"118","target":"7","id":"479","attributes":{},"color":"rgb(138,82,233)","size":1.0},{"source":"214","target":"50","id":"1228","attributes":{},"color":"rgb(150,149,132)","size":1.0},{"source":"199","target":"50","id":"1094","attributes":{},"color":"rgb(159,143,131)","size":1.0},{"source":"44","target":"71","id":"100","attributes":{},"color":"rgb(84,109,243)","size":1.0},{"source":"84","target":"2","id":"295","attributes":{},"color":"rgb(136,78,239)","size":1.0},{"source":"122","target":"182","id":"509","attributes":{},"color":"rgb(68,118,244)","size":1.0},{"source":"136","target":"84","id":"670","attributes":{},"color":"rgb(234,106,116)","size":1.0},{"source":"154","target":"75","id":"766","attributes":{},"color":"rgb(149,71,238)","size":1.0},{"source":"149","target":"210","id":"725","attributes":{},"color":"rgb(69,117,245)","size":1.0},{"source":"154","target":"136","id":"788","attributes":{},"color":"rgb(237,105,116)","size":1.0},{"source":"206","target":"102","id":"1181","attributes":{},"color":"rgb(66,119,245)","size":1.0},{"source":"38","target":"6","id":"72","attributes":{},"color":"rgb(50,128,246)","size":1.0},{"source":"80","target":"49","id":"267","attributes":{},"color":"rgb(174,129,137)","size":1.0},{"source":"172","target":"55","id":"884","attributes":{},"color":"rgb(93,103,242)","size":1.0},{"source":"55","target":"69","id":"160","attributes":{},"color":"rgb(78,112,244)","size":1.0},{"source":"210","target":"50","id":"1198","attributes":{},"color":"rgb(167,139,130)","size":1.0},{"source":"154","target":"103","id":"774","attributes":{},"color":"rgb(143,75,238)","size":1.0},{"source":"53","target":"50","id":"153","attributes":{},"color":"rgb(163,141,130)","size":1.0},{"source":"5","target":"217","id":"7","attributes":{},"color":"rgb(69,117,244)","size":1.0},{"source":"130","target":"44","id":"556","attributes":{},"color":"rgb(178,106,164)","size":1.0},{"source":"136","target":"106","id":"684","attributes":{},"color":"rgb(181,137,120)","size":1.0},{"source":"127","target":"118","id":"529","attributes":{},"color":"rgb(155,72,232)","size":1.0},{"source":"200","target":"17","id":"1098","attributes":{},"color":"rgb(146,128,163)","size":1.0},{"source":"169","target":"41","id":"858","attributes":{},"color":"rgb(151,75,230)","size":1.0},{"source":"173","target":"70","id":"903","attributes":{},"color":"rgb(236,69,164)","size":1.0},{"source":"85","target":"172","id":"320","attributes":{},"color":"rgb(92,104,242)","size":1.0},{"source":"192","target":"127","id":"1030","attributes":{},"color":"rgb(151,70,238)","size":1.0},{"source":"115","target":"127","id":"474","attributes":{},"color":"rgb(91,104,243)","size":1.0},{"source":"218","target":"136","id":"1243","attributes":{},"color":"rgb(155,152,123)","size":1.0},{"source":"105","target":"104","id":"423","attributes":{},"color":"rgb(100,99,242)","size":1.0},{"source":"192","target":"152","id":"1035","attributes":{},"color":"rgb(164,62,236)","size":1.0},{"source":"34","target":"45","id":"56","attributes":{},"color":"rgb(85,108,243)","size":1.0},{"source":"136","target":"63","id":"656","attributes":{},"color":"rgb(160,149,122)","size":1.0},{"source":"127","target":"80","id":"524","attributes":{},"color":"rgb(165,134,138)","size":1.0},{"source":"190","target":"130","id":"1001","attributes":{},"color":"rgb(149,123,167)","size":1.0},{"source":"50","target":"3","id":"123","attributes":{},"color":"rgb(150,149,132)","size":1.0},{"source":"80","target":"10","id":"249","attributes":{},"color":"rgb(174,129,137)","size":1.0},{"source":"82","target":"229","id":"293","attributes":{},"color":"rgb(74,114,244)","size":1.0},{"source":"48","target":"41","id":"113","attributes":{},"color":"rgb(157,72,229)","size":1.0},{"source":"50","target":"34","id":"140","attributes":{},"color":"rgb(157,144,131)","size":1.0},{"source":"195","target":"50","id":"1068","attributes":{},"color":"rgb(169,137,130)","size":1.0},{"source":"56","target":"192","id":"162","attributes":{},"color":"rgb(134,80,239)","size":1.0},{"source":"141","target":"9","id":"710","attributes":{},"color":"rgb(73,115,244)","size":1.0},{"source":"95","target":"44","id":"363","attributes":{},"color":"rgb(82,110,243)","size":1.0},{"source":"119","target":"37","id":"489","attributes":{},"color":"rgb(100,99,242)","size":1.0},{"source":"176","target":"50","id":"924","attributes":{},"color":"rgb(177,133,129)","size":1.0},{"source":"189","target":"118","id":"991","attributes":{},"color":"rgb(169,63,230)","size":1.0},{"source":"70","target":"9","id":"196","attributes":{},"color":"rgb(165,96,190)","size":1.0},{"source":"173","target":"24","id":"897","attributes":{},"color":"rgb(171,73,216)","size":1.0},{"source":"80","target":"37","id":"261","attributes":{},"color":"rgb(188,121,136)","size":1.0},{"source":"128","target":"31","id":"533","attributes":{},"color":"rgb(84,108,243)","size":1.0},{"source":"136","target":"69","id":"660","attributes":{},"color":"rgb(179,138,121)","size":1.0},{"source":"103","target":"41","id":"405","attributes":{},"color":"rgb(148,77,230)","size":1.0},{"source":"217","target":"145","id":"1238","attributes":{},"color":"rgb(73,114,244)","size":1.0},{"source":"202","target":"147","id":"1146","attributes":{},"color":"rgb(49,129,246)","size":1.0},{"source":"172","target":"109","id":"888","attributes":{},"color":"rgb(117,89,240)","size":1.0},{"source":"63","target":"24","id":"177","attributes":{},"color":"rgb(88,106,243)","size":1.0},{"source":"163","target":"192","id":"827","attributes":{},"color":"rgb(147,72,238)","size":1.0},{"source":"173","target":"80","id":"904","attributes":{},"color":"rgb(242,104,111)","size":1.0},{"source":"128","target":"20","id":"532","attributes":{},"color":"rgb(90,105,242)","size":1.0},{"source":"103","target":"82","id":"407","attributes":{},"color":"rgb(75,113,244)","size":1.0},{"source":"203","target":"10","id":"1147","attributes":{},"color":"rgb(88,106,243)","size":1.0},{"source":"102","target":"80","id":"399","attributes":{},"color":"rgb(163,135,138)","size":1.0},{"source":"50","target":"25","id":"133","attributes":{},"color":"rgb(159,143,131)","size":1.0},{"source":"50","target":"48","id":"148","attributes":{},"color":"rgb(169,137,130)","size":1.0},{"source":"68","target":"106","id":"185","attributes":{},"color":"rgb(102,98,241)","size":1.0},{"source":"47","target":"18","id":"110","attributes":{},"color":"rgb(141,101,204)","size":1.0},{"source":"125","target":"35","id":"516","attributes":{},"color":"rgb(83,109,243)","size":1.0},{"source":"207","target":"169","id":"1193","attributes":{},"color":"rgb(73,115,244)","size":1.0},{"source":"156","target":"24","id":"791","attributes":{},"color":"rgb(78,112,244)","size":1.0},{"source":"130","target":"49","id":"560","attributes":{},"color":"rgb(171,111,165)","size":1.0},{"source":"62","target":"40","id":"176","attributes":{},"color":"rgb(47,131,247)","size":1.0},{"source":"130","target":"50","id":"561","attributes":{},"color":"rgb(249,143,52)","size":1.0},{"source":"127","target":"189","id":"530","attributes":{},"color":"rgb(94,102,242)","size":1.0},{"source":"70","target":"4","id":"195","attributes":{},"color":"rgb(145,107,191)","size":1.0},{"source":"229","target":"176","id":"1289","attributes":{},"color":"rgb(82,109,243)","size":1.0},{"source":"84","target":"27","id":"300","attributes":{},"color":"rgb(137,78,239)","size":1.0},{"source":"200","target":"80","id":"1113","attributes":{},"color":"rgb(248,141,56)","size":1.0},{"source":"200","target":"137","id":"1124","attributes":{},"color":"rgb(150,125,163)","size":1.0},{"source":"136","target":"20","id":"630","attributes":{},"color":"rgb(169,144,121)","size":1.0},{"source":"163","target":"87","id":"818","attributes":{},"color":"rgb(106,96,241)","size":1.0},{"source":"185","target":"154","id":"970","attributes":{},"color":"rgb(155,68,237)","size":1.0},{"source":"86","target":"49","id":"323","attributes":{},"color":"rgb(78,112,243)","size":1.0},{"source":"80","target":"48","id":"266","attributes":{},"color":"rgb(168,132,137)","size":1.0},{"source":"163","target":"84","id":"817","attributes":{},"color":"rgb(143,74,238)","size":1.0},{"source":"75","target":"120","id":"229","attributes":{},"color":"rgb(87,107,243)","size":1.0},{"source":"130","target":"84","id":"575","attributes":{},"color":"rgb(229,77,160)","size":1.0},{"source":"212","target":"111","id":"1214","attributes":{},"color":"rgb(81,110,243)","size":1.0},{"source":"130","target":"45","id":"557","attributes":{},"color":"rgb(176,107,164)","size":1.0},{"source":"159","target":"130","id":"803","attributes":{},"color":"rgb(161,116,166)","size":1.0},{"source":"50","target":"0","id":"120","attributes":{},"color":"rgb(170,137,130)","size":1.0},{"source":"193","target":"0","id":"1047","attributes":{},"color":"rgb(78,112,244)","size":1.0},{"source":"38","target":"84","id":"73","attributes":{},"color":"rgb(134,80,239)","size":1.0},{"source":"24","target":"45","id":"44","attributes":{},"color":"rgb(109,94,241)","size":1.0},{"source":"192","target":"136","id":"1032","attributes":{},"color":"rgb(238,104,116)","size":1.0},{"source":"208","target":"149","id":"1196","attributes":{},"color":"rgb(57,124,246)","size":1.0},{"source":"173","target":"135","id":"910","attributes":{},"color":"rgb(150,85,218)","size":1.0},{"source":"102","target":"41","id":"396","attributes":{},"color":"rgb(152,75,230)","size":1.0},{"source":"141","target":"224","id":"713","attributes":{},"color":"rgb(54,126,246)","size":1.0},{"source":"79","target":"44","id":"240","attributes":{},"color":"rgb(97,101,242)","size":1.0},{"source":"205","target":"136","id":"1176","attributes":{},"color":"rgb(165,146,122)","size":1.0},{"source":"104","target":"223","id":"412","attributes":{},"color":"rgb(83,109,243)","size":1.0},{"source":"223","target":"130","id":"1267","attributes":{},"color":"rgb(161,116,166)","size":1.0},{"source":"21","target":"109","id":"37","attributes":{},"color":"rgb(80,111,243)","size":1.0},{"source":"130","target":"118","id":"588","attributes":{},"color":"rgb(237,76,154)","size":1.0},{"source":"194","target":"173","id":"1064","attributes":{},"color":"rgb(152,84,217)","size":1.0},{"source":"48","target":"11","id":"111","attributes":{},"color":"rgb(87,106,243)","size":1.0},{"source":"45","target":"132","id":"108","attributes":{},"color":"rgb(99,100,242)","size":1.0},{"source":"154","target":"128","id":"783","attributes":{},"color":"rgb(158,66,237)","size":1.0},{"source":"123","target":"50","id":"511","attributes":{},"color":"rgb(156,145,131)","size":1.0},{"source":"200","target":"127","id":"1120","attributes":{},"color":"rgb(162,118,162)","size":1.0},{"source":"53","target":"172","id":"156","attributes":{},"color":"rgb(104,97,241)","size":1.0},{"source":"176","target":"200","id":"935","attributes":{},"color":"rgb(173,112,161)","size":1.0},{"source":"172","target":"120","id":"889","attributes":{},"color":"rgb(115,91,240)","size":1.0},{"source":"97","target":"68","id":"380","attributes":{},"color":"rgb(85,108,243)","size":1.0},{"source":"20","target":"154","id":"34","attributes":{},"color":"rgb(152,70,237)","size":1.0},{"source":"154","target":"77","id":"767","attributes":{},"color":"rgb(147,72,238)","size":1.0},{"source":"96","target":"84","id":"372","attributes":{},"color":"rgb(148,71,238)","size":1.0},{"source":"84","target":"19","id":"298","attributes":{},"color":"rgb(144,74,238)","size":1.0},{"source":"169","target":"154","id":"865","attributes":{},"color":"rgb(146,73,238)","size":1.0},{"source":"192","target":"135","id":"1031","attributes":{},"color":"rgb(145,73,238)","size":1.0},{"source":"173","target":"48","id":"899","attributes":{},"color":"rgb(159,80,217)","size":1.0},{"source":"219","target":"70","id":"1249","attributes":{},"color":"rgb(160,98,190)","size":1.0},{"source":"84","target":"48","id":"305","attributes":{},"color":"rgb(149,71,238)","size":1.0},{"source":"14","target":"120","id":"28","attributes":{},"color":"rgb(76,113,244)","size":1.0},{"source":"80","target":"77","id":"276","attributes":{},"color":"rgb(163,135,138)","size":1.0},{"source":"221","target":"32","id":"1255","attributes":{},"color":"rgb(55,125,245)","size":1.0},{"source":"102","target":"194","id":"404","attributes":{},"color":"rgb(73,115,244)","size":1.0},{"source":"84","target":"65","id":"307","attributes":{},"color":"rgb(149,71,238)","size":1.0},{"source":"136","target":"8","id":"624","attributes":{},"color":"rgb(155,152,123)","size":1.0},{"source":"171","target":"50","id":"873","attributes":{},"color":"rgb(177,133,129)","size":1.0},{"source":"157","target":"136","id":"797","attributes":{},"color":"rgb(163,148,122)","size":1.0},{"source":"184","target":"18","id":"961","attributes":{},"color":"rgb(141,101,204)","size":1.0},{"source":"225","target":"170","id":"1273","attributes":{},"color":"rgb(47,131,247)","size":1.0},{"source":"207","target":"70","id":"1189","attributes":{},"color":"rgb(156,101,190)","size":1.0},{"source":"11","target":"78","id":"23","attributes":{},"color":"rgb(70,116,244)","size":1.0},{"source":"111","target":"80","id":"456","attributes":{},"color":"rgb(179,126,136)","size":1.0},{"source":"173","target":"69","id":"902","attributes":{},"color":"rgb(168,75,216)","size":1.0},{"source":"140","target":"136","id":"709","attributes":{},"color":"rgb(151,155,123)","size":1.0},{"source":"27","target":"203","id":"49","attributes":{},"color":"rgb(69,117,244)","size":1.0},{"source":"230","target":"80","id":"1290","attributes":{},"color":"rgb(149,144,139)","size":1.0},{"source":"100","target":"70","id":"391","attributes":{},"color":"rgb(143,109,192)","size":1.0},{"source":"200","target":"135","id":"1122","attributes":{},"color":"rgb(156,121,162)","size":1.0},{"source":"164","target":"41","id":"829","attributes":{},"color":"rgb(163,69,229)","size":1.0},{"source":"44","target":"131","id":"102","attributes":{},"color":"rgb(84,108,243)","size":1.0},{"source":"70","target":"19","id":"198","attributes":{},"color":"rgb(157,100,190)","size":1.0},{"source":"82","target":"105","id":"289","attributes":{},"color":"rgb(99,100,242)","size":1.0},{"source":"152","target":"229","id":"742","attributes":{},"color":"rgb(85,107,243)","size":1.0},{"source":"131","target":"80","id":"595","attributes":{},"color":"rgb(154,140,139)","size":1.0},{"source":"80","target":"55","id":"270","attributes":{},"color":"rgb(152,142,139)","size":1.0},{"source":"157","target":"41","id":"792","attributes":{},"color":"rgb(150,76,230)","size":1.0},{"source":"210","target":"111","id":"1202","attributes":{},"color":"rgb(94,103,242)","size":1.0},{"source":"86","target":"84","id":"327","attributes":{},"color":"rgb(137,78,239)","size":1.0},{"source":"200","target":"69","id":"1110","attributes":{},"color":"rgb(174,111,161)","size":1.0},{"source":"224","target":"93","id":"1270","attributes":{},"color":"rgb(64,120,245)","size":1.0},{"source":"164","target":"215","id":"836","attributes":{},"color":"rgb(77,113,244)","size":1.0},{"source":"136","target":"40","id":"643","attributes":{},"color":"rgb(151,155,123)","size":1.0},{"source":"198","target":"152","id":"1092","attributes":{},"color":"rgb(79,111,243)","size":1.0},{"source":"89","target":"18","id":"349","attributes":{},"color":"rgb(141,101,204)","size":1.0},{"source":"136","target":"34","id":"638","attributes":{},"color":"rgb(158,150,122)","size":1.0},{"source":"50","target":"20","id":"131","attributes":{},"color":"rgb(168,138,130)","size":1.0},{"source":"105","target":"70","id":"418","attributes":{},"color":"rgb(176,89,189)","size":1.0},{"source":"205","target":"154","id":"1177","attributes":{},"color":"rgb(148,72,238)","size":1.0},{"source":"157","target":"70","id":"795","attributes":{},"color":"rgb(155,102,191)","size":1.0},{"source":"50","target":"36","id":"142","attributes":{},"color":"rgb(170,137,130)","size":1.0},{"source":"109","target":"87","id":"446","attributes":{},"color":"rgb(120,88,240)","size":1.0},{"source":"204","target":"186","id":"1167","attributes":{},"color":"rgb(78,112,244)","size":1.0},{"source":"179","target":"35","id":"940","attributes":{},"color":"rgb(85,108,243)","size":1.0},{"source":"96","target":"11","id":"367","attributes":{},"color":"rgb(86,107,243)","size":1.0},{"source":"205","target":"41","id":"1168","attributes":{},"color":"rgb(153,74,230)","size":1.0},{"source":"88","target":"50","id":"345","attributes":{},"color":"rgb(157,144,131)","size":1.0},{"source":"88","target":"104","id":"348","attributes":{},"color":"rgb(75,114,244)","size":1.0},{"source":"130","target":"115","id":"587","attributes":{},"color":"rgb(173,109,165)","size":1.0},{"source":"136","target":"48","id":"648","attributes":{},"color":"rgb(170,143,121)","size":1.0},{"source":"217","target":"50","id":"1236","attributes":{},"color":"rgb(166,139,130)","size":1.0},{"source":"109","target":"48","id":"440","attributes":{},"color":"rgb(93,103,242)","size":1.0},{"source":"44","target":"41","id":"99","attributes":{},"color":"rgb(171,64,228)","size":1.0},{"source":"220","target":"50","id":"1253","attributes":{},"color":"rgb(150,149,132)","size":1.0},{"source":"219","target":"136","id":"1251","attributes":{},"color":"rgb(168,144,122)","size":1.0},{"source":"119","target":"95","id":"494","attributes":{},"color":"rgb(64,120,245)","size":1.0},{"source":"154","target":"59","id":"762","attributes":{},"color":"rgb(162,64,237)","size":1.0},{"source":"87","target":"90","id":"339","attributes":{},"color":"rgb(101,99,242)","size":1.0},{"source":"122","target":"41","id":"507","attributes":{},"color":"rgb(151,76,230)","size":1.0},{"source":"84","target":"192","id":"319","attributes":{},"color":"rgb(218,31,232)","size":1.0},{"source":"65","target":"50","id":"180","attributes":{},"color":"rgb(168,138,130)","size":1.0},{"source":"115","target":"200","id":"475","attributes":{},"color":"rgb(173,111,161)","size":1.0},{"source":"70","target":"198","id":"214","attributes":{},"color":"rgb(145,107,191)","size":1.0},{"source":"136","target":"10","id":"626","attributes":{},"color":"rgb(176,140,121)","size":1.0},{"source":"218","target":"70","id":"1241","attributes":{},"color":"rgb(147,106,191)","size":1.0},{"source":"125","target":"59","id":"518","attributes":{},"color":"rgb(82,109,243)","size":1.0},{"source":"139","target":"118","id":"707","attributes":{},"color":"rgb(138,82,233)","size":1.0},{"source":"50","target":"22","id":"132","attributes":{},"color":"rgb(176,133,129)","size":1.0},{"source":"165","target":"41","id":"838","attributes":{},"color":"rgb(141,81,231)","size":1.0},{"source":"97","target":"41","id":"376","attributes":{},"color":"rgb(152,75,230)","size":1.0},{"source":"130","target":"41","id":"555","attributes":{},"color":"rgb(237,78,152)","size":1.0},{"source":"80","target":"203","id":"283","attributes":{},"color":"rgb(164,134,138)","size":1.0},{"source":"2","target":"152","id":"3","attributes":{},"color":"rgb(83,109,243)","size":1.0},{"source":"37","target":"101","id":"67","attributes":{},"color":"rgb(90,105,243)","size":1.0},{"source":"84","target":"11","id":"297","attributes":{},"color":"rgb(152,69,238)","size":1.0},{"source":"164","target":"185","id":"835","attributes":{},"color":"rgb(93,103,242)","size":1.0},{"source":"59","target":"19","id":"165","attributes":{},"color":"rgb(89,105,243)","size":1.0},{"source":"41","target":"0","id":"74","attributes":{},"color":"rgb(159,71,229)","size":1.0},{"source":"109","target":"45","id":"439","attributes":{},"color":"rgb(104,97,241)","size":1.0},{"source":"192","target":"83","id":"1025","attributes":{},"color":"rgb(140,76,239)","size":1.0},{"source":"171","target":"44","id":"871","attributes":{},"color":"rgb(106,96,241)","size":1.0},{"source":"49","target":"138","id":"116","attributes":{},"color":"rgb(75,114,244)","size":1.0},{"source":"87","target":"9","id":"328","attributes":{},"color":"rgb(115,91,241)","size":1.0},{"source":"101","target":"80","id":"393","attributes":{},"color":"rgb(153,141,139)","size":1.0},{"source":"165","target":"84","id":"842","attributes":{},"color":"rgb(133,80,239)","size":1.0},{"source":"87","target":"194","id":"341","attributes":{},"color":"rgb(105,96,241)","size":1.0},{"source":"189","target":"154","id":"995","attributes":{},"color":"rgb(164,62,236)","size":1.0},{"source":"189","target":"87","id":"989","attributes":{},"color":"rgb(124,85,240)","size":1.0},{"source":"43","target":"154","id":"97","attributes":{},"color":"rgb(136,79,239)","size":1.0},{"source":"96","target":"50","id":"369","attributes":{},"color":"rgb(168,138,130)","size":1.0},{"source":"130","target":"34","id":"552","attributes":{},"color":"rgb(153,121,166)","size":1.0},{"source":"83","target":"106","id":"294","attributes":{},"color":"rgb(82,109,243)","size":1.0},{"source":"219","target":"154","id":"1252","attributes":{},"color":"rgb(151,70,238)","size":1.0},{"source":"27","target":"136","id":"48","attributes":{},"color":"rgb(157,151,122)","size":1.0},{"source":"50","target":"1","id":"121","attributes":{},"color":"rgb(157,144,131)","size":1.0},{"source":"233","target":"35","id":"1293","attributes":{},"color":"rgb(76,113,244)","size":1.0},{"source":"61","target":"145","id":"175","attributes":{},"color":"rgb(77,112,244)","size":1.0},{"source":"41","target":"30","id":"84","attributes":{},"color":"rgb(152,75,230)","size":1.0},{"source":"130","target":"25","id":"551","attributes":{},"color":"rgb(155,119,166)","size":1.0},{"source":"207","target":"130","id":"1190","attributes":{},"color":"rgb(159,117,166)","size":1.0},{"source":"136","target":"105","id":"683","attributes":{},"color":"rgb(184,135,120)","size":1.0},{"source":"72","target":"51","id":"218","attributes":{},"color":"rgb(63,120,245)","size":1.0},{"source":"173","target":"162","id":"915","attributes":{},"color":"rgb(140,91,219)","size":1.0},{"source":"223","target":"50","id":"1262","attributes":{},"color":"rgb(165,139,130)","size":1.0},{"source":"163","target":"80","id":"816","attributes":{},"color":"rgb(162,136,138)","size":1.0},{"source":"212","target":"44","id":"1212","attributes":{},"color":"rgb(83,109,243)","size":1.0},{"source":"134","target":"171","id":"614","attributes":{},"color":"rgb(98,100,242)","size":1.0},{"source":"200","target":"148","id":"1126","attributes":{},"color":"rgb(146,128,163)","size":1.0},{"source":"180","target":"70","id":"944","attributes":{},"color":"rgb(148,105,191)","size":1.0},{"source":"219","target":"130","id":"1250","attributes":{},"color":"rgb(163,115,166)","size":1.0},{"source":"189","target":"49","id":"984","attributes":{},"color":"rgb(103,98,241)","size":1.0},{"source":"80","target":"128","id":"282","attributes":{},"color":"rgb(173,129,137)","size":1.0},{"source":"168","target":"106","id":"854","attributes":{},"color":"rgb(96,101,242)","size":1.0},{"source":"171","target":"80","id":"875","attributes":{},"color":"rgb(176,128,137)","size":1.0},{"source":"223","target":"4","id":"1259","attributes":{},"color":"rgb(65,119,245)","size":1.0},{"source":"80","target":"45","id":"265","attributes":{},"color":"rgb(179,126,136)","size":1.0},{"source":"205","target":"69","id":"1170","attributes":{},"color":"rgb(89,105,243)","size":1.0},{"source":"154","target":"65","id":"763","attributes":{},"color":"rgb(152,70,237)","size":1.0},{"source":"196","target":"118","id":"1082","attributes":{},"color":"rgb(138,82,233)","size":1.0},{"source":"120","target":"41","id":"499","attributes":{},"color":"rgb(163,69,229)","size":1.0},{"source":"211","target":"20","id":"1205","attributes":{},"color":"rgb(70,116,244)","size":1.0},{"source":"189","target":"24","id":"981","attributes":{},"color":"rgb(109,94,241)","size":1.0},{"source":"192","target":"103","id":"1027","attributes":{},"color":"rgb(144,74,238)","size":1.0},{"source":"130","target":"77","id":"569","attributes":{},"color":"rgb(160,117,166)","size":1.0},{"source":"179","target":"122","id":"941","attributes":{},"color":"rgb(68,118,244)","size":1.0},{"source":"118","target":"109","id":"487","attributes":{},"color":"rgb(165,66,231)","size":1.0},{"source":"130","target":"109","id":"583","attributes":{},"color":"rgb(173,109,165)","size":1.0},{"source":"146","target":"136","id":"720","attributes":{},"color":"rgb(156,152,123)","size":1.0},{"source":"159","target":"168","id":"805","attributes":{},"color":"rgb(81,110,243)","size":1.0},{"source":"92","target":"87","id":"354","attributes":{},"color":"rgb(95,102,242)","size":1.0},{"source":"225","target":"136","id":"1272","attributes":{},"color":"rgb(151,155,123)","size":1.0},{"source":"80","target":"229","id":"285","attributes":{},"color":"rgb(157,138,138)","size":1.0},{"source":"216","target":"192","id":"1233","attributes":{},"color":"rgb(134,80,239)","size":1.0},{"source":"93","target":"50","id":"356","attributes":{},"color":"rgb(164,140,130)","size":1.0},{"source":"131","target":"130","id":"596","attributes":{},"color":"rgb(151,122,167)","size":1.0},{"source":"200","target":"103","id":"1117","attributes":{},"color":"rgb(155,122,162)","size":1.0},{"source":"195","target":"69","id":"1069","attributes":{},"color":"rgb(94,103,242)","size":1.0},{"source":"14","target":"172","id":"30","attributes":{},"color":"rgb(95,102,242)","size":1.0},{"source":"37","target":"157","id":"68","attributes":{},"color":"rgb(98,101,242)","size":1.0},{"source":"175","target":"50","id":"919","attributes":{},"color":"rgb(163,141,130)","size":1.0},{"source":"80","target":"122","id":"280","attributes":{},"color":"rgb(161,136,138)","size":1.0},{"source":"102","target":"70","id":"398","attributes":{},"color":"rgb(157,100,190)","size":1.0},{"source":"163","target":"20","id":"812","attributes":{},"color":"rgb(78,112,243)","size":1.0},{"source":"168","target":"96","id":"852","attributes":{},"color":"rgb(84,108,243)","size":1.0},{"source":"132","target":"80","id":"602","attributes":{},"color":"rgb(171,131,137)","size":1.0},{"source":"210","target":"119","id":"1203","attributes":{},"color":"rgb(78,112,244)","size":1.0},{"source":"173","target":"154","id":"912","attributes":{},"color":"rgb(226,41,211)","size":1.0},{"source":"192","target":"181","id":"1043","attributes":{},"color":"rgb(140,76,239)","size":1.0},{"source":"176","target":"154","id":"932","attributes":{},"color":"rgb(160,65,237)","size":1.0},{"source":"9","target":"128","id":"13","attributes":{},"color":"rgb(93,103,242)","size":1.0},{"source":"80","target":"219","id":"284","attributes":{},"color":"rgb(166,133,138)","size":1.0},{"source":"70","target":"65","id":"208","attributes":{},"color":"rgb(161,98,190)","size":1.0},{"source":"136","target":"102","id":"680","attributes":{},"color":"rgb(165,146,122)","size":1.0},{"source":"50","target":"19","id":"130","attributes":{},"color":"rgb(164,140,130)","size":1.0},{"source":"130","target":"61","id":"564","attributes":{},"color":"rgb(166,113,165)","size":1.0},{"source":"9","target":"105","id":"11","attributes":{},"color":"rgb(102,98,242)","size":1.0},{"source":"136","target":"62","id":"655","attributes":{},"color":"rgb(151,155,123)","size":1.0},{"source":"24","target":"44","id":"43","attributes":{},"color":"rgb(111,93,241)","size":1.0},{"source":"136","target":"39","id":"642","attributes":{},"color":"rgb(151,155,123)","size":1.0},{"source":"61","target":"50","id":"172","attributes":{},"color":"rgb(170,137,130)","size":1.0},{"source":"149","target":"50","id":"724","attributes":{},"color":"rgb(155,145,131)","size":1.0},{"source":"227","target":"50","id":"1278","attributes":{},"color":"rgb(150,149,132)","size":1.0},{"source":"161","target":"136","id":"809","attributes":{},"color":"rgb(151,155,123)","size":1.0},{"source":"200","target":"146","id":"1125","attributes":{},"color":"rgb(151,125,163)","size":1.0},{"source":"211","target":"134","id":"1210","attributes":{},"color":"rgb(76,113,244)","size":1.0},{"source":"200","target":"50","id":"1104","attributes":{},"color":"rgb(249,146,48)","size":1.0},{"source":"169","target":"159","id":"866","attributes":{},"color":"rgb(75,114,244)","size":1.0},{"source":"34","target":"61","id":"57","attributes":{},"color":"rgb(74,114,244)","size":1.0},{"source":"50","target":"44","id":"146","attributes":{},"color":"rgb(182,130,129)","size":1.0},{"source":"98","target":"12","id":"383","attributes":{},"color":"rgb(67,118,244)","size":1.0},{"source":"130","target":"5","id":"543","attributes":{},"color":"rgb(152,121,166)","size":1.0},{"source":"179","target":"217","id":"943","attributes":{},"color":"rgb(72,115,244)","size":1.0},{"source":"69","target":"50","id":"187","attributes":{},"color":"rgb(178,132,129)","size":1.0},{"source":"159","target":"87","id":"802","attributes":{},"color":"rgb(108,95,241)","size":1.0},{"source":"154","target":"8","id":"747","attributes":{},"color":"rgb(138,78,239)","size":1.0},{"source":"163","target":"70","id":"815","attributes":{},"color":"rgb(156,101,190)","size":1.0},{"source":"81","target":"13","id":"286","attributes":{},"color":"rgb(52,127,246)","size":1.0},{"source":"211","target":"84","id":"1208","attributes":{},"color":"rgb(135,79,239)","size":1.0},{"source":"105","target":"213","id":"426","attributes":{},"color":"rgb(99,100,242)","size":1.0},{"source":"118","target":"87","id":"486","attributes":{},"color":"rgb(184,55,229)","size":1.0},{"source":"200","target":"15","id":"1097","attributes":{},"color":"rgb(146,128,163)","size":1.0},{"source":"120","target":"9","id":"497","attributes":{},"color":"rgb(93,103,242)","size":1.0},{"source":"87","target":"48","id":"333","attributes":{},"color":"rgb(112,92,241)","size":1.0},{"source":"118","target":"24","id":"480","attributes":{},"color":"rgb(170,63,230)","size":1.0},{"source":"133","target":"130","id":"608","attributes":{},"color":"rgb(162,115,166)","size":1.0},{"source":"41","target":"214","id":"92","attributes":{},"color":"rgb(138,83,231)","size":1.0},{"source":"163","target":"118","id":"820","attributes":{},"color":"rgb(151,74,232)","size":1.0},{"source":"176","target":"159","id":"933","attributes":{},"color":"rgb(89,106,243)","size":1.0},{"source":"41","target":"19","id":"80","attributes":{},"color":"rgb(152,75,230)","size":1.0},{"source":"97","target":"61","id":"379","attributes":{},"color":"rgb(80,110,243)","size":1.0},{"source":"120","target":"80","id":"501","attributes":{},"color":"rgb(173,129,137)","size":1.0},{"source":"192","target":"137","id":"1033","attributes":{},"color":"rgb(139,77,239)","size":1.0},{"source":"182","target":"70","id":"953","attributes":{},"color":"rgb(151,104,191)","size":1.0},{"source":"136","target":"36","id":"640","attributes":{},"color":"rgb(171,143,121)","size":1.0},{"source":"163","target":"130","id":"822","attributes":{},"color":"rgb(159,117,166)","size":1.0},{"source":"185","target":"50","id":"963","attributes":{},"color":"rgb(171,136,130)","size":1.0},{"source":"190","target":"172","id":"1003","attributes":{},"color":"rgb(94,103,242)","size":1.0},{"source":"154","target":"127","id":"782","attributes":{},"color":"rgb(150,71,238)","size":1.0},{"source":"200","target":"183","id":"1134","attributes":{},"color":"rgb(146,128,163)","size":1.0},{"source":"232","target":"200","id":"1292","attributes":{},"color":"rgb(146,128,163)","size":1.0},{"source":"98","target":"72","id":"386","attributes":{},"color":"rgb(79,111,243)","size":1.0},{"source":"191","target":"173","id":"1009","attributes":{},"color":"rgb(153,83,217)","size":1.0},{"source":"192","target":"168","id":"1039","attributes":{},"color":"rgb(154,68,237)","size":1.0},{"source":"194","target":"70","id":"1058","attributes":{},"color":"rgb(155,101,190)","size":1.0},{"source":"79","target":"50","id":"241","attributes":{},"color":"rgb(167,138,130)","size":1.0},{"source":"204","target":"50","id":"1162","attributes":{},"color":"rgb(176,133,129)","size":1.0},{"source":"130","target":"119","id":"589","attributes":{},"color":"rgb(160,117,166)","size":1.0},{"source":"135","target":"10","id":"617","attributes":{},"color":"rgb(83,109,243)","size":1.0},{"source":"222","target":"200","id":"1258","attributes":{},"color":"rgb(146,128,163)","size":1.0},{"source":"231","target":"80","id":"1291","attributes":{},"color":"rgb(149,144,139)","size":1.0},{"source":"72","target":"37","id":"217","attributes":{},"color":"rgb(100,99,242)","size":1.0},{"source":"154","target":"134","id":"786","attributes":{},"color":"rgb(158,66,237)","size":1.0},{"source":"78","target":"70","id":"238","attributes":{},"color":"rgb(145,107,191)","size":1.0},{"source":"136","target":"120","id":"691","attributes":{},"color":"rgb(175,140,121)","size":1.0},{"source":"177","target":"173","id":"937","attributes":{},"color":"rgb(140,91,219)","size":1.0},{"source":"154","target":"41","id":"758","attributes":{},"color":"rgb(225,33,224)","size":1.0},{"source":"192","target":"154","id":"1036","attributes":{},"color":"rgb(221,30,232)","size":1.0},{"source":"210","target":"80","id":"1199","attributes":{},"color":"rgb(166,134,138)","size":1.0},{"source":"203","target":"154","id":"1155","attributes":{},"color":"rgb(149,71,238)","size":1.0},{"source":"212","target":"152","id":"1216","attributes":{},"color":"rgb(80,110,243)","size":1.0},{"source":"152","target":"102","id":"739","attributes":{},"color":"rgb(91,104,242)","size":1.0},{"source":"103","target":"70","id":"406","attributes":{},"color":"rgb(152,103,191)","size":1.0},{"source":"123","target":"41","id":"510","attributes":{},"color":"rgb(145,79,230)","size":1.0},{"source":"200","target":"24","id":"1101","attributes":{},"color":"rgb(177,109,160)","size":1.0},{"source":"98","target":"84","id":"388","attributes":{},"color":"rgb(148,71,238)","size":1.0},{"source":"130","target":"70","id":"567","attributes":{},"color":"rgb(242,103,112)","size":1.0},{"source":"92","target":"130","id":"355","attributes":{},"color":"rgb(148,124,167)","size":1.0},{"source":"45","target":"43","id":"105","attributes":{},"color":"rgb(80,111,243)","size":1.0},{"source":"213","target":"91","id":"1224","attributes":{},"color":"rgb(68,118,244)","size":1.0},{"source":"70","target":"22","id":"199","attributes":{},"color":"rgb(169,93,189)","size":1.0},{"source":"200","target":"160","id":"1129","attributes":{},"color":"rgb(146,128,163)","size":1.0},{"source":"80","target":"8","id":"247","attributes":{},"color":"rgb(153,141,139)","size":1.0},{"source":"105","target":"115","id":"424","attributes":{},"color":"rgb(107,95,241)","size":1.0},{"source":"154","target":"2","id":"745","attributes":{},"color":"rgb(139,77,238)","size":1.0},{"source":"152","target":"50","id":"732","attributes":{},"color":"rgb(180,131,129)","size":1.0},{"source":"41","target":"223","id":"93","attributes":{},"color":"rgb(154,74,230)","size":1.0},{"source":"75","target":"128","id":"230","attributes":{},"color":"rgb(87,107,243)","size":1.0},{"source":"75","target":"41","id":"225","attributes":{},"color":"rgb(154,74,230)","size":1.0},{"source":"80","target":"35","id":"260","attributes":{},"color":"rgb(178,126,137)","size":1.0},{"source":"41","target":"11","id":"79","attributes":{},"color":"rgb(160,70,229)","size":1.0},{"source":"88","target":"61","id":"347","attributes":{},"color":"rgb(74,114,244)","size":1.0},{"source":"198","target":"136","id":"1091","attributes":{},"color":"rgb(153,153,123)","size":1.0},{"source":"80","target":"78","id":"277","attributes":{},"color":"rgb(151,142,139)","size":1.0},{"source":"94","target":"18","id":"361","attributes":{},"color":"rgb(141,101,204)","size":1.0},{"source":"95","target":"49","id":"364","attributes":{},"color":"rgb(75,114,244)","size":1.0},{"source":"132","target":"130","id":"606","attributes":{},"color":"rgb(168,112,165)","size":1.0},{"source":"221","target":"50","id":"1257","attributes":{},"color":"rgb(156,145,131)","size":1.0},{"source":"80","target":"56","id":"271","attributes":{},"color":"rgb(149,144,139)","size":1.0},{"source":"194","target":"109","id":"1059","attributes":{},"color":"rgb(86,107,243)","size":1.0},{"source":"130","target":"86","id":"576","attributes":{},"color":"rgb(152,121,166)","size":1.0},{"source":"234","target":"164","id":"1296","attributes":{},"color":"rgb(71,116,244)","size":1.0},{"source":"205","target":"70","id":"1171","attributes":{},"color":"rgb(157,100,190)","size":1.0},{"source":"102","target":"192","id":"403","attributes":{},"color":"rgb(148,71,238)","size":1.0},{"source":"50","target":"41","id":"145","attributes":{},"color":"rgb(241,101,116)","size":1.0},{"source":"136","target":"128","id":"695","attributes":{},"color":"rgb(175,140,121)","size":1.0},{"source":"176","target":"138","id":"931","attributes":{},"color":"rgb(77,112,244)","size":1.0},{"source":"152","target":"95","id":"738","attributes":{},"color":"rgb(80,111,243)","size":1.0},{"source":"11","target":"68","id":"22","attributes":{},"color":"rgb(93,103,242)","size":1.0},{"source":"130","target":"9","id":"544","attributes":{},"color":"rgb(168,112,165)","size":1.0},{"source":"154","target":"98","id":"773","attributes":{},"color":"rgb(151,70,237)","size":1.0},{"source":"109","target":"41","id":"438","attributes":{},"color":"rgb(165,67,229)","size":1.0},{"source":"3","target":"104","id":"4","attributes":{},"color":"rgb(67,119,245)","size":1.0},{"source":"112","target":"50","id":"463","attributes":{},"color":"rgb(152,147,131)","size":1.0},{"source":"152","target":"84","id":"736","attributes":{},"color":"rgb(160,64,237)","size":1.0},{"source":"109","target":"106","id":"448","attributes":{},"color":"rgb(104,97,241)","size":1.0},{"source":"190","target":"120","id":"1000","attributes":{},"color":"rgb(75,114,244)","size":1.0},{"source":"105","target":"84","id":"420","attributes":{},"color":"rgb(163,63,237)","size":1.0},{"source":"163","target":"45","id":"813","attributes":{},"color":"rgb(90,105,242)","size":1.0},{"source":"136","target":"109","id":"685","attributes":{},"color":"rgb(178,139,121)","size":1.0},{"source":"171","target":"19","id":"868","attributes":{},"color":"rgb(88,106,243)","size":1.0},{"source":"37","target":"181","id":"69","attributes":{},"color":"rgb(91,104,243)","size":1.0},{"source":"120","target":"229","id":"505","attributes":{},"color":"rgb(80,111,243)","size":1.0},{"source":"152","target":"85","id":"737","attributes":{},"color":"rgb(79,111,243)","size":1.0},{"source":"192","target":"118","id":"1029","attributes":{},"color":"rgb(226,31,226)","size":1.0},{"source":"152","target":"1","id":"730","attributes":{},"color":"rgb(84,108,243)","size":1.0},{"source":"172","target":"41","id":"882","attributes":{},"color":"rgb(182,58,227)","size":1.0},{"source":"111","target":"50","id":"455","attributes":{},"color":"rgb(180,131,129)","size":1.0},{"source":"207","target":"50","id":"1188","attributes":{},"color":"rgb(163,141,130)","size":1.0},{"source":"136","target":"111","id":"686","attributes":{},"color":"rgb(181,137,120)","size":1.0},{"source":"213","target":"84","id":"1222","attributes":{},"color":"rgb(150,71,238)","size":1.0},{"source":"234","target":"50","id":"1295","attributes":{},"color":"rgb(150,149,132)","size":1.0},{"source":"136","target":"4","id":"623","attributes":{},"color":"rgb(153,153,123)","size":1.0},{"source":"199","target":"221","id":"1096","attributes":{},"color":"rgb(62,121,245)","size":1.0},{"source":"185","target":"212","id":"971","attributes":{},"color":"rgb(72,115,244)","size":1.0},{"source":"211","target":"154","id":"1211","attributes":{},"color":"rgb(138,77,239)","size":1.0},{"source":"50","target":"28","id":"135","attributes":{},"color":"rgb(153,147,131)","size":1.0},{"source":"105","target":"2","id":"413","attributes":{},"color":"rgb(86,107,243)","size":1.0},{"source":"86","target":"9","id":"321","attributes":{},"color":"rgb(75,114,244)","size":1.0},{"source":"188","target":"118","id":"976","attributes":{},"color":"rgb(138,82,233)","size":1.0},{"source":"69","target":"203","id":"193","attributes":{},"color":"rgb(90,105,243)","size":1.0},{"source":"221","target":"41","id":"1256","attributes":{},"color":"rgb(144,79,230)","size":1.0},{"source":"53","target":"37","id":"151","attributes":{},"color":"rgb(99,100,242)","size":1.0},{"source":"163","target":"195","id":"828","attributes":{},"color":"rgb(79,111,243)","size":1.0},{"source":"107","target":"80","id":"435","attributes":{},"color":"rgb(149,144,139)","size":1.0},{"source":"173","target":"108","id":"907","attributes":{},"color":"rgb(140,91,219)","size":1.0},{"source":"224","target":"136","id":"1271","attributes":{},"color":"rgb(154,152,123)","size":1.0},{"source":"200","target":"130","id":"1121","attributes":{},"color":"rgb(245,122,84)","size":1.0},{"source":"207","target":"131","id":"1191","attributes":{},"color":"rgb(65,119,245)","size":1.0},{"source":"130","target":"10","id":"545","attributes":{},"color":"rgb(171,110,165)","size":1.0},{"source":"176","target":"41","id":"923","attributes":{},"color":"rgb(165,67,229)","size":1.0},{"source":"211","target":"41","id":"1206","attributes":{},"color":"rgb(143,80,231)","size":1.0},{"source":"192","target":"80","id":"1023","attributes":{},"color":"rgb(236,93,132)","size":1.0},{"source":"200","target":"162","id":"1130","attributes":{},"color":"rgb(146,128,163)","size":1.0},{"source":"210","target":"87","id":"1201","attributes":{},"color":"rgb(110,94,241)","size":1.0},{"source":"87","target":"212","id":"342","attributes":{},"color":"rgb(96,101,242)","size":1.0},{"source":"135","target":"70","id":"618","attributes":{},"color":"rgb(153,102,191)","size":1.0},{"source":"68","target":"65","id":"184","attributes":{},"color":"rgb(90,105,242)","size":1.0},{"source":"41","target":"49","id":"87","attributes":{},"color":"rgb(163,69,229)","size":1.0},{"source":"192","target":"66","id":"1019","attributes":{},"color":"rgb(134,80,239)","size":1.0},{"source":"189","target":"136","id":"994","attributes":{},"color":"rgb(182,136,120)","size":1.0},{"source":"219","target":"34","id":"1246","attributes":{},"color":"rgb(72,116,244)","size":1.0},{"source":"80","target":"67","id":"272","attributes":{},"color":"rgb(149,144,139)","size":1.0},{"source":"145","target":"130","id":"719","attributes":{},"color":"rgb(156,119,166)","size":1.0},{"source":"96","target":"70","id":"370","attributes":{},"color":"rgb(161,98,190)","size":1.0},{"source":"217","target":"130","id":"1237","attributes":{},"color":"rgb(162,115,166)","size":1.0},{"source":"138","target":"115","id":"705","attributes":{},"color":"rgb(78,112,244)","size":1.0},{"source":"154","target":"69","id":"764","attributes":{},"color":"rgb(161,64,237)","size":1.0},{"source":"205","target":"84","id":"1173","attributes":{},"color":"rgb(145,73,238)","size":1.0},{"source":"109","target":"84","id":"445","attributes":{},"color":"rgb(157,66,237)","size":1.0},{"source":"82","target":"44","id":"287","attributes":{},"color":"rgb(98,100,242)","size":1.0},{"source":"136","target":"18","id":"629","attributes":{},"color":"rgb(245,125,81)","size":1.0},{"source":"171","target":"154","id":"879","attributes":{},"color":"rgb(160,65,237)","size":1.0},{"source":"180","target":"171","id":"948","attributes":{},"color":"rgb(79,111,244)","size":1.0},{"source":"192","target":"148","id":"1034","attributes":{},"color":"rgb(134,80,239)","size":1.0},{"source":"4","target":"168","id":"6","attributes":{},"color":"rgb(69,117,244)","size":1.0},{"source":"130","target":"110","id":"584","attributes":{},"color":"rgb(158,118,166)","size":1.0},{"source":"154","target":"105","id":"775","attributes":{},"color":"rgb(166,61,236)","size":1.0},{"source":"160","target":"80","id":"807","attributes":{},"color":"rgb(149,144,139)","size":1.0},{"source":"178","target":"154","id":"939","attributes":{},"color":"rgb(133,81,239)","size":1.0},{"source":"171","target":"49","id":"872","attributes":{},"color":"rgb(99,100,242)","size":1.0},{"source":"41","target":"132","id":"90","attributes":{},"color":"rgb(160,70,229)","size":1.0},{"source":"80","target":"1","id":"243","attributes":{},"color":"rgb(156,139,138)","size":1.0},{"source":"136","target":"50","id":"650","attributes":{},"color":"rgb(254,173,8)","size":1.0},{"source":"200","target":"70","id":"1111","attributes":{},"color":"rgb(242,106,108)","size":1.0},{"source":"195","target":"146","id":"1078","attributes":{},"color":"rgb(71,116,244)","size":1.0},{"source":"200","target":"18","id":"1099","attributes":{},"color":"rgb(240,98,121)","size":1.0},{"source":"106","target":"70","id":"430","attributes":{},"color":"rgb(173,91,189)","size":1.0},{"source":"172","target":"136","id":"891","attributes":{},"color":"rgb(194,129,119)","size":1.0},{"source":"183","target":"70","id":"957","attributes":{},"color":"rgb(143,109,192)","size":1.0},{"source":"223","target":"192","id":"1269","attributes":{},"color":"rgb(150,70,238)","size":1.0},{"source":"130","target":"106","id":"582","attributes":{},"color":"rgb(176,107,164)","size":1.0},{"source":"102","target":"172","id":"402","attributes":{},"color":"rgb(104,97,241)","size":1.0},{"source":"49","target":"157","id":"117","attributes":{},"color":"rgb(84,109,243)","size":1.0},{"source":"59","target":"146","id":"168","attributes":{},"color":"rgb(80,111,244)","size":1.0},{"source":"152","target":"80","id":"734","attributes":{},"color":"rgb(179,126,136)","size":1.0},{"source":"10","target":"25","id":"16","attributes":{},"color":"rgb(82,110,243)","size":1.0},{"source":"186","target":"50","id":"973","attributes":{},"color":"rgb(154,146,131)","size":1.0},{"source":"53","target":"48","id":"152","attributes":{},"color":"rgb(79,111,243)","size":1.0},{"source":"10","target":"61","id":"17","attributes":{},"color":"rgb(92,104,242)","size":1.0},{"source":"163","target":"106","id":"819","attributes":{},"color":"rgb(90,105,242)","size":1.0},{"source":"200","target":"193","id":"1139","attributes":{},"color":"rgb(157,121,162)","size":1.0},{"source":"192","target":"183","id":"1044","attributes":{},"color":"rgb(134,80,239)","size":1.0},{"source":"80","target":"14","id":"251","attributes":{},"color":"rgb(153,141,139)","size":1.0},{"source":"189","target":"10","id":"978","attributes":{},"color":"rgb(103,97,241)","size":1.0},{"source":"213","target":"130","id":"1225","attributes":{},"color":"rgb(165,114,165)","size":1.0},{"source":"61","target":"84","id":"174","attributes":{},"color":"rgb(150,70,238)","size":1.0},{"source":"35","target":"37","id":"58","attributes":{},"color":"rgb(115,90,241)","size":1.0},{"source":"80","target":"91","id":"279","attributes":{},"color":"rgb(151,142,139)","size":1.0},{"source":"152","target":"82","id":"735","attributes":{},"color":"rgb(96,101,242)","size":1.0},{"source":"155","target":"80","id":"790","attributes":{},"color":"rgb(149,144,139)","size":1.0},{"source":"188","target":"173","id":"977","attributes":{},"color":"rgb(140,91,219)","size":1.0},{"source":"133","target":"46","id":"607","attributes":{},"color":"rgb(63,121,245)","size":1.0},{"source":"200","target":"83","id":"1114","attributes":{},"color":"rgb(151,124,163)","size":1.0},{"source":"106","target":"79","id":"431","attributes":{},"color":"rgb(94,102,242)","size":1.0},{"source":"132","target":"91","id":"604","attributes":{},"color":"rgb(71,116,244)","size":1.0},{"source":"172","target":"154","id":"892","attributes":{},"color":"rgb(177,55,235)","size":1.0},{"source":"215","target":"20","id":"1229","attributes":{},"color":"rgb(71,116,244)","size":1.0},{"source":"13","target":"179","id":"27","attributes":{},"color":"rgb(61,122,245)","size":1.0},{"source":"72","target":"80","id":"219","attributes":{},"color":"rgb(163,135,138)","size":1.0},{"source":"136","target":"114","id":"687","attributes":{},"color":"rgb(156,151,123)","size":1.0},{"source":"131","target":"50","id":"594","attributes":{},"color":"rgb(155,145,131)","size":1.0},{"source":"136","target":"104","id":"682","attributes":{},"color":"rgb(171,143,121)","size":1.0},{"source":"70","target":"56","id":"206","attributes":{},"color":"rgb(143,109,192)","size":1.0},{"source":"90","target":"83","id":"352","attributes":{},"color":"rgb(60,122,245)","size":1.0},{"source":"168","target":"80","id":"850","attributes":{},"color":"rgb(168,132,137)","size":1.0},{"source":"98","target":"50","id":"385","attributes":{},"color":"rgb(168,138,130)","size":1.0},{"source":"152","target":"70","id":"733","attributes":{},"color":"rgb(173,91,189)","size":1.0},{"source":"90","target":"45","id":"350","attributes":{},"color":"rgb(85,108,243)","size":1.0},{"source":"173","target":"60","id":"900","attributes":{},"color":"rgb(140,91,219)","size":1.0},{"source":"97","target":"50","id":"377","attributes":{},"color":"rgb(163,140,130)","size":1.0},{"source":"134","target":"36","id":"609","attributes":{},"color":"rgb(91,104,242)","size":1.0},{"source":"80","target":"9","id":"248","attributes":{},"color":"rgb(171,131,137)","size":1.0},{"source":"229","target":"130","id":"1286","attributes":{},"color":"rgb(154,120,166)","size":1.0},{"source":"162","target":"70","id":"810","attributes":{},"color":"rgb(143,109,192)","size":1.0},{"source":"99","target":"26","id":"390","attributes":{},"color":"rgb(52,127,246)","size":1.0},{"source":"48","target":"205","id":"114","attributes":{},"color":"rgb(80,110,243)","size":1.0},{"source":"213","target":"70","id":"1220","attributes":{},"color":"rgb(162,97,190)","size":1.0},{"source":"128","target":"49","id":"535","attributes":{},"color":"rgb(96,102,242)","size":1.0},{"source":"136","target":"59","id":"654","attributes":{},"color":"rgb(179,138,121)","size":1.0},{"source":"203","target":"130","id":"1153","attributes":{},"color":"rgb(161,116,166)","size":1.0},{"source":"104","target":"82","id":"410","attributes":{},"color":"rgb(86,107,243)","size":1.0},{"source":"154","target":"50","id":"761","attributes":{},"color":"rgb(236,99,124)","size":1.0},{"source":"65","target":"206","id":"181","attributes":{},"color":"rgb(71,116,244)","size":1.0},{"source":"136","target":"90","id":"673","attributes":{},"color":"rgb(159,150,122)","size":1.0},{"source":"173","target":"136","id":"911","attributes":{},"color":"rgb(244,115,95)","size":1.0},{"source":"197","target":"154","id":"1086","attributes":{},"color":"rgb(135,79,239)","size":1.0},{"source":"200","target":"188","id":"1136","attributes":{},"color":"rgb(146,128,163)","size":1.0},{"source":"130","target":"78","id":"570","attributes":{},"color":"rgb(148,124,167)","size":1.0},{"source":"200","target":"194","id":"1140","attributes":{},"color":"rgb(158,120,162)","size":1.0},{"source":"154","target":"84","id":"769","attributes":{},"color":"rgb(217,32,232)","size":1.0},{"source":"177","target":"118","id":"936","attributes":{},"color":"rgb(138,82,233)","size":1.0},{"source":"154","target":"118","id":"778","attributes":{},"color":"rgb(225,32,226)","size":1.0},{"source":"41","target":"77","id":"88","attributes":{},"color":"rgb(152,75,230)","size":1.0},{"source":"109","target":"50","id":"442","attributes":{},"color":"rgb(177,133,129)","size":1.0},{"source":"50","target":"12","id":"129","attributes":{},"color":"rgb(152,147,131)","size":1.0},{"source":"132","target":"118","id":"605","attributes":{},"color":"rgb(160,69,231)","size":1.0},{"source":"154","target":"70","id":"765","attributes":{},"color":"rgb(229,59,184)","size":1.0},{"source":"203","target":"192","id":"1159","attributes":{},"color":"rgb(150,70,238)","size":1.0},{"source":"104","target":"50","id":"409","attributes":{},"color":"rgb(170,137,130)","size":1.0},{"source":"130","target":"55","id":"562","attributes":{},"color":"rgb(149,123,167)","size":1.0},{"source":"111","target":"41","id":"453","attributes":{},"color":"rgb(169,65,228)","size":1.0},{"source":"37","target":"78","id":"65","attributes":{},"color":"rgb(88,106,243)","size":1.0},{"source":"195","target":"115","id":"1075","attributes":{},"color":"rgb(94,103,242)","size":1.0},{"source":"200","target":"60","id":"1105","attributes":{},"color":"rgb(146,128,163)","size":1.0},{"source":"84","target":"190","id":"318","attributes":{},"color":"rgb(134,80,239)","size":1.0},{"source":"41","target":"31","id":"85","attributes":{},"color":"rgb(151,75,230)","size":1.0},{"source":"106","target":"84","id":"433","attributes":{},"color":"rgb(160,64,237)","size":1.0},{"source":"192","target":"48","id":"1015","attributes":{},"color":"rgb(153,68,237)","size":1.0},{"source":"154","target":"120","id":"780","attributes":{},"color":"rgb(158,66,237)","size":1.0},{"source":"192","target":"162","id":"1038","attributes":{},"color":"rgb(134,80,239)","size":1.0},{"source":"154","target":"48","id":"760","attributes":{},"color":"rgb(152,69,237)","size":1.0},{"source":"77","target":"111","id":"236","attributes":{},"color":"rgb(91,104,242)","size":1.0},{"source":"193","target":"136","id":"1053","attributes":{},"color":"rgb(162,148,122)","size":1.0},{"source":"189","target":"50","id":"985","attributes":{},"color":"rgb(181,130,129)","size":1.0},{"source":"41","target":"131","id":"89","attributes":{},"color":"rgb(143,80,231)","size":1.0},{"source":"173","target":"118","id":"908","attributes":{},"color":"rgb(231,42,205)","size":1.0},{"source":"203","target":"173","id":"1157","attributes":{},"color":"rgb(155,82,217)","size":1.0},{"source":"204","target":"57","id":"1163","attributes":{},"color":"rgb(73,115,244)","size":1.0},{"source":"77","target":"9","id":"233","attributes":{},"color":"rgb(83,109,243)","size":1.0},{"source":"120","target":"50","id":"500","attributes":{},"color":"rgb(174,134,129)","size":1.0},{"source":"80","target":"5","id":"246","attributes":{},"color":"rgb(155,140,138)","size":1.0},{"source":"164","target":"50","id":"830","attributes":{},"color":"rgb(174,134,129)","size":1.0},{"source":"192","target":"172","id":"1040","attributes":{},"color":"rgb(178,54,235)","size":1.0},{"source":"182","target":"128","id":"954","attributes":{},"color":"rgb(80,111,243)","size":1.0},{"source":"36","target":"84","id":"62","attributes":{},"color":"rgb(150,70,238)","size":1.0},{"source":"84","target":"77","id":"311","attributes":{},"color":"rgb(144,74,238)","size":1.0},{"source":"182","target":"50","id":"952","attributes":{},"color":"rgb(158,144,131)","size":1.0},{"source":"53","target":"226","id":"158","attributes":{},"color":"rgb(63,121,245)","size":1.0},{"source":"43","target":"11","id":"96","attributes":{},"color":"rgb(71,116,244)","size":1.0},{"source":"209","target":"200","id":"1197","attributes":{},"color":"rgb(146,128,163)","size":1.0},{"source":"192","target":"189","id":"1045","attributes":{},"color":"rgb(165,61,236)","size":1.0},{"source":"77","target":"50","id":"234","attributes":{},"color":"rgb(164,140,130)","size":1.0},{"source":"213","target":"80","id":"1221","attributes":{},"color":"rgb(168,132,137)","size":1.0},{"source":"84","target":"168","id":"315","attributes":{},"color":"rgb(150,71,238)","size":1.0},{"source":"69","target":"125","id":"191","attributes":{},"color":"rgb(82,110,243)","size":1.0},{"source":"80","target":"44","id":"264","attributes":{},"color":"rgb(181,125,136)","size":1.0},{"source":"136","target":"99","id":"678","attributes":{},"color":"rgb(153,153,123)","size":1.0},{"source":"78","target":"84","id":"239","attributes":{},"color":"rgb(132,81,239)","size":1.0},{"source":"109","target":"20","id":"436","attributes":{},"color":"rgb(92,104,242)","size":1.0},{"source":"41","target":"28","id":"83","attributes":{},"color":"rgb(141,81,231)","size":1.0},{"source":"59","target":"180","id":"169","attributes":{},"color":"rgb(81,110,244)","size":1.0},{"source":"75","target":"181","id":"231","attributes":{},"color":"rgb(68,118,245)","size":1.0},{"source":"168","target":"103","id":"853","attributes":{},"color":"rgb(76,113,244)","size":1.0},{"source":"130","target":"14","id":"548","attributes":{},"color":"rgb(150,122,167)","size":1.0},{"source":"105","target":"102","id":"422","attributes":{},"color":"rgb(94,103,242)","size":1.0},{"source":"200","target":"23","id":"1100","attributes":{},"color":"rgb(146,128,163)","size":1.0},{"source":"69","target":"168","id":"192","attributes":{},"color":"rgb(94,103,242)","size":1.0},{"source":"30","target":"22","id":"52","attributes":{},"color":"rgb(87,107,243)","size":1.0},{"source":"106","target":"80","id":"432","attributes":{},"color":"rgb(179,126,136)","size":1.0},{"source":"189","target":"134","id":"993","attributes":{},"color":"rgb(102,98,241)","size":1.0},{"source":"136","target":"33","id":"637","attributes":{},"color":"rgb(151,155,123)","size":1.0},{"source":"173","target":"127","id":"909","attributes":{},"color":"rgb(156,81,217)","size":1.0},{"source":"105","target":"45","id":"415","attributes":{},"color":"rgb(110,93,241)","size":1.0},{"source":"147","target":"136","id":"722","attributes":{},"color":"rgb(151,155,123)","size":1.0},{"source":"123","target":"80","id":"512","attributes":{},"color":"rgb(155,140,138)","size":1.0},{"source":"82","target":"59","id":"288","attributes":{},"color":"rgb(94,102,242)","size":1.0},{"source":"212","target":"80","id":"1213","attributes":{},"color":"rgb(152,141,139)","size":1.0},{"source":"137","target":"136","id":"702","attributes":{},"color":"rgb(155,152,123)","size":1.0},{"source":"80","target":"22","id":"255","attributes":{},"color":"rgb(175,128,137)","size":1.0},{"source":"136","target":"93","id":"675","attributes":{},"color":"rgb(165,146,122)","size":1.0},{"source":"212","target":"130","id":"1215","attributes":{},"color":"rgb(149,123,167)","size":1.0},{"source":"211","target":"50","id":"1207","attributes":{},"color":"rgb(155,145,131)","size":1.0},{"source":"86","target":"80","id":"326","attributes":{},"color":"rgb(155,140,138)","size":1.0},{"source":"119","target":"50","id":"491","attributes":{},"color":"rgb(164,140,130)","size":1.0},{"source":"192","target":"44","id":"1014","attributes":{},"color":"rgb(167,61,236)","size":1.0},{"source":"200","target":"66","id":"1108","attributes":{},"color":"rgb(146,128,163)","size":1.0},{"source":"229","target":"41","id":"1282","attributes":{},"color":"rgb(147,78,230)","size":1.0},{"source":"182","target":"171","id":"956","attributes":{},"color":"rgb(82,110,243)","size":1.0},{"source":"173","target":"167","id":"916","attributes":{},"color":"rgb(140,91,219)","size":1.0},{"source":"185","target":"84","id":"965","attributes":{},"color":"rgb(152,69,238)","size":1.0},{"source":"58","target":"50","id":"164","attributes":{},"color":"rgb(150,149,132)","size":1.0},{"source":"128","target":"168","id":"539","attributes":{},"color":"rgb(91,105,242)","size":1.0},{"source":"53","target":"152","id":"155","attributes":{},"color":"rgb(90,105,242)","size":1.0},{"source":"192","target":"173","id":"1041","attributes":{},"color":"rgb(227,40,211)","size":1.0},{"source":"136","target":"125","id":"693","attributes":{},"color":"rgb(158,150,122)","size":1.0},{"source":"41","target":"10","id":"78","attributes":{},"color":"rgb(164,68,229)","size":1.0},{"source":"161","target":"39","id":"808","attributes":{},"color":"rgb(47,131,247)","size":1.0},{"source":"135","target":"80","id":"619","attributes":{},"color":"rgb(159,137,138)","size":1.0},{"source":"130","target":"0","id":"542","attributes":{},"color":"rgb(166,113,165)","size":1.0},{"source":"183","target":"173","id":"960","attributes":{},"color":"rgb(140,91,219)","size":1.0},{"source":"195","target":"109","id":"1074","attributes":{},"color":"rgb(93,103,242)","size":1.0},{"source":"41","target":"2","id":"75","attributes":{},"color":"rgb(144,79,230)","size":1.0},{"source":"118","target":"84","id":"485","attributes":{},"color":"rgb(222,33,226)","size":1.0},{"source":"200","target":"154","id":"1127","attributes":{},"color":"rgb(232,78,156)","size":1.0},{"source":"203","target":"41","id":"1148","attributes":{},"color":"rgb(154,74,230)","size":1.0},{"source":"90","target":"75","id":"351","attributes":{},"color":"rgb(70,116,244)","size":1.0},{"source":"130","target":"101","id":"580","attributes":{},"color":"rgb(150,122,167)","size":1.0},{"source":"114","target":"50","id":"467","attributes":{},"color":"rgb(155,145,131)","size":1.0},{"source":"127","target":"87","id":"526","attributes":{},"color":"rgb(109,94,241)","size":1.0},{"source":"111","target":"44","id":"454","attributes":{},"color":"rgb(110,94,241)","size":1.0},{"source":"215","target":"150","id":"1231","attributes":{},"color":"rgb(56,125,246)","size":1.0},{"source":"219","target":"41","id":"1247","attributes":{},"color":"rgb(156,73,230)","size":1.0},{"source":"195","target":"136","id":"1077","attributes":{},"color":"rgb(170,143,121)","size":1.0},{"source":"136","target":"135","id":"700","attributes":{},"color":"rgb(161,148,122)","size":1.0},{"source":"189","target":"173","id":"996","attributes":{},"color":"rgb(171,73,216)","size":1.0},{"source":"203","target":"84","id":"1151","attributes":{},"color":"rgb(146,73,238)","size":1.0},{"source":"172","target":"86","id":"886","attributes":{},"color":"rgb(97,101,242)","size":1.0},{"source":"112","target":"84","id":"464","attributes":{},"color":"rgb(133,80,239)","size":1.0},{"source":"146","target":"176","id":"721","attributes":{},"color":"rgb(79,112,244)","size":1.0},{"source":"80","target":"70","id":"274","attributes":{},"color":"rgb(245,122,84)","size":1.0},{"source":"84","target":"28","id":"301","attributes":{},"color":"rgb(133,80,239)","size":1.0},{"source":"185","target":"130","id":"968","attributes":{},"color":"rgb(167,112,165)","size":1.0},{"source":"106","target":"115","id":"434","attributes":{},"color":"rgb(104,96,241)","size":1.0},{"source":"136","target":"31","id":"636","attributes":{},"color":"rgb(164,147,122)","size":1.0},{"source":"194","target":"192","id":"1066","attributes":{},"color":"rgb(147,72,238)","size":1.0},{"source":"50","target":"32","id":"138","attributes":{},"color":"rgb(152,147,131)","size":1.0},{"source":"101","target":"41","id":"392","attributes":{},"color":"rgb(142,80,231)","size":1.0},{"source":"194","target":"118","id":"1061","attributes":{},"color":"rgb(151,74,232)","size":1.0},{"source":"128","target":"14","id":"531","attributes":{},"color":"rgb(76,113,244)","size":1.0},{"source":"169","target":"49","id":"859","attributes":{},"color":"rgb(85,108,243)","size":1.0},{"source":"192","target":"70","id":"1021","attributes":{},"color":"rgb(230,58,184)","size":1.0},{"source":"195","target":"70","id":"1070","attributes":{},"color":"rgb(162,97,190)","size":1.0},{"source":"200","target":"166","id":"1131","attributes":{},"color":"rgb(146,128,163)","size":1.0},{"source":"189","target":"200","id":"997","attributes":{},"color":"rgb(177,109,160)","size":1.0},{"source":"149","target":"215","id":"726","attributes":{},"color":"rgb(58,124,246)","size":1.0},{"source":"154","target":"19","id":"750","attributes":{},"color":"rgb(147,72,238)","size":1.0},{"source":"221","target":"31","id":"1254","attributes":{},"color":"rgb(66,119,244)","size":1.0},{"source":"172","target":"80","id":"885","attributes":{},"color":"rgb(192,118,135)","size":1.0},{"source":"50","target":"45","id":"147","attributes":{},"color":"rgb(180,131,129)","size":1.0},{"source":"172","target":"50","id":"883","attributes":{},"color":"rgb(193,123,128)","size":1.0},{"source":"50","target":"37","id":"143","attributes":{},"color":"rgb(189,126,128)","size":1.0},{"source":"127","target":"106","id":"527","attributes":{},"color":"rgb(93,103,242)","size":1.0},{"source":"229","target":"70","id":"1284","attributes":{},"color":"rgb(151,103,191)","size":1.0},{"source":"129","target":"80","id":"541","attributes":{},"color":"rgb(149,144,139)","size":1.0},{"source":"136","target":"97","id":"676","attributes":{},"color":"rgb(164,146,122)","size":1.0},{"source":"84","target":"75","id":"310","attributes":{},"color":"rgb(146,73,238)","size":1.0},{"source":"205","target":"173","id":"1178","attributes":{},"color":"rgb(154,82,217)","size":1.0},{"source":"106","target":"50","id":"429","attributes":{},"color":"rgb(180,131,129)","size":1.0},{"source":"0","target":"109","id":"0","attributes":{},"color":"rgb(94,103,242)","size":1.0},{"source":"154","target":"27","id":"753","attributes":{},"color":"rgb(140,77,238)","size":1.0},{"source":"171","target":"130","id":"877","attributes":{},"color":"rgb(173,109,165)","size":1.0},{"source":"138","target":"80","id":"704","attributes":{},"color":"rgb(152,141,139)","size":1.0},{"source":"200","target":"191","id":"1137","attributes":{},"color":"rgb(159,120,162)","size":1.0},{"source":"125","target":"119","id":"519","attributes":{},"color":"rgb(68,118,244)","size":1.0},{"source":"84","target":"45","id":"304","attributes":{},"color":"rgb(161,64,237)","size":1.0},{"source":"154","target":"132","id":"785","attributes":{},"color":"rgb(155,68,237)","size":1.0},{"source":"80","target":"19","id":"253","attributes":{},"color":"rgb(163,135,138)","size":1.0},{"source":"202","target":"136","id":"1145","attributes":{},"color":"rgb(153,153,123)","size":1.0},{"source":"84","target":"80","id":"312","attributes":{},"color":"rgb(232,95,132)","size":1.0},{"source":"132","target":"70","id":"601","attributes":{},"color":"rgb(165,96,190)","size":1.0},{"source":"120","target":"92","id":"503","attributes":{},"color":"rgb(73,115,244)","size":1.0},{"source":"136","target":"130","id":"696","attributes":{},"color":"rgb(250,149,44)","size":1.0},{"source":"200","target":"48","id":"1103","attributes":{},"color":"rgb(165,116,161)","size":1.0},{"source":"223","target":"74","id":"1264","attributes":{},"color":"rgb(67,118,245)","size":1.0},{"source":"175","target":"136","id":"922","attributes":{},"color":"rgb(164,147,122)","size":1.0},{"source":"203","target":"136","id":"1154","attributes":{},"color":"rgb(166,145,122)","size":1.0},{"source":"128","target":"82","id":"538","attributes":{},"color":"rgb(90,105,242)","size":1.0},{"source":"154","target":"9","id":"748","attributes":{},"color":"rgb(155,68,237)","size":1.0},{"source":"80","target":"4","id":"245","attributes":{},"color":"rgb(151,142,139)","size":1.0},{"source":"80","target":"20","id":"254","attributes":{},"color":"rgb(167,133,137)","size":1.0},{"source":"169","target":"70","id":"861","attributes":{},"color":"rgb(156,101,190)","size":1.0},{"source":"204","target":"41","id":"1161","attributes":{},"color":"rgb(165,67,229)","size":1.0},{"source":"218","target":"80","id":"1242","attributes":{},"color":"rgb(153,141,139)","size":1.0},{"source":"87","target":"70","id":"336","attributes":{},"color":"rgb(189,82,188)","size":1.0},{"source":"130","target":"81","id":"573","attributes":{},"color":"rgb(146,125,167)","size":1.0},{"source":"183","target":"118","id":"959","attributes":{},"color":"rgb(138,82,233)","size":1.0},{"source":"136","target":"21","id":"631","attributes":{},"color":"rgb(157,151,122)","size":1.0},{"source":"164","target":"136","id":"834","attributes":{},"color":"rgb(175,140,121)","size":1.0},{"source":"19","target":"11","id":"32","attributes":{},"color":"rgb(82,109,243)","size":1.0},{"source":"115","target":"50","id":"470","attributes":{},"color":"rgb(177,132,129)","size":1.0},{"source":"136","target":"127","id":"694","attributes":{},"color":"rgb(167,145,122)","size":1.0},{"source":"190","target":"171","id":"1002","attributes":{},"color":"rgb(77,112,244)","size":1.0},{"source":"197","target":"41","id":"1083","attributes":{},"color":"rgb(140,82,231)","size":1.0},{"source":"172","target":"176","id":"893","attributes":{},"color":"rgb(117,89,240)","size":1.0},{"source":"205","target":"175","id":"1179","attributes":{},"color":"rgb(75,114,244)","size":1.0},{"source":"136","target":"82","id":"668","attributes":{},"color":"rgb(170,143,121)","size":1.0},{"source":"198","target":"130","id":"1090","attributes":{},"color":"rgb(148,124,167)","size":1.0},{"source":"192","target":"82","id":"1024","attributes":{},"color":"rgb(153,68,237)","size":1.0},{"source":"118","target":"115","id":"488","attributes":{},"color":"rgb(166,65,231)","size":1.0},{"source":"154","target":"123","id":"781","attributes":{},"color":"rgb(140,77,238)","size":1.0},{"source":"118","target":"70","id":"483","attributes":{},"color":"rgb(234,60,178)","size":1.0},{"source":"120","target":"2","id":"496","attributes":{},"color":"rgb(77,112,243)","size":1.0},{"source":"136","target":"71","id":"662","attributes":{},"color":"rgb(156,152,123)","size":1.0},{"source":"10","target":"70","id":"18","attributes":{},"color":"rgb(168,94,189)","size":1.0},{"source":"35","target":"69","id":"59","attributes":{},"color":"rgb(104,97,242)","size":1.0},{"source":"115","target":"44","id":"468","attributes":{},"color":"rgb(107,95,241)","size":1.0},{"source":"136","target":"118","id":"689","attributes":{},"color":"rgb(242,106,110)","size":1.0},{"source":"84","target":"69","id":"308","attributes":{},"color":"rgb(158,66,237)","size":1.0},{"source":"205","target":"130","id":"1175","attributes":{},"color":"rgb(160,116,166)","size":1.0},{"source":"163","target":"136","id":"825","attributes":{},"color":"rgb(164,147,122)","size":1.0},{"source":"120","target":"84","id":"502","attributes":{},"color":"rgb(155,68,237)","size":1.0},{"source":"148","target":"118","id":"723","attributes":{},"color":"rgb(138,82,233)","size":1.0},{"source":"84","target":"179","id":"316","attributes":{},"color":"rgb(139,77,239)","size":1.0},{"source":"87","target":"10","id":"329","attributes":{},"color":"rgb(118,89,240)","size":1.0},{"source":"82","target":"205","id":"291","attributes":{},"color":"rgb(80,110,243)","size":1.0},{"source":"191","target":"136","id":"1008","attributes":{},"color":"rgb(164,147,122)","size":1.0},{"source":"192","target":"160","id":"1037","attributes":{},"color":"rgb(134,80,239)","size":1.0},{"source":"195","target":"102","id":"1073","attributes":{},"color":"rgb(80,111,243)","size":1.0},{"source":"1","target":"36","id":"1","attributes":{},"color":"rgb(74,114,244)","size":1.0},{"source":"176","target":"70","id":"925","attributes":{},"color":"rgb(170,93,189)","size":1.0},{"source":"189","target":"45","id":"983","attributes":{},"color":"rgb(108,94,241)","size":1.0},{"source":"84","target":"37","id":"303","attributes":{},"color":"rgb(169,59,236)","size":1.0},{"source":"189","target":"130","id":"992","attributes":{},"color":"rgb(177,107,164)","size":1.0},{"source":"206","target":"192","id":"1184","attributes":{},"color":"rgb(140,76,239)","size":1.0},{"source":"70","target":"133","id":"212","attributes":{},"color":"rgb(159,99,190)","size":1.0},{"source":"216","target":"200","id":"1234","attributes":{},"color":"rgb(146,128,163)","size":1.0},{"source":"223","target":"37","id":"1260","attributes":{},"color":"rgb(101,98,242)","size":1.0},{"source":"197","target":"50","id":"1084","attributes":{},"color":"rgb(152,147,131)","size":1.0},{"source":"128","target":"207","id":"540","attributes":{},"color":"rgb(84,108,243)","size":1.0},{"source":"136","target":"41","id":"644","attributes":{},"color":"rgb(242,107,108)","size":1.0},{"source":"154","target":"106","id":"776","attributes":{},"color":"rgb(163,63,236)","size":1.0},{"source":"45","target":"25","id":"103","attributes":{},"color":"rgb(87,107,243)","size":1.0},{"source":"163","target":"132","id":"824","attributes":{},"color":"rgb(82,110,243)","size":1.0},{"source":"175","target":"105","id":"920","attributes":{},"color":"rgb(93,103,242)","size":1.0},{"source":"137","target":"171","id":"703","attributes":{},"color":"rgb(78,112,244)","size":1.0},{"source":"22","target":"164","id":"42","attributes":{},"color":"rgb(98,101,242)","size":1.0},{"source":"181","target":"50","id":"949","attributes":{},"color":"rgb(155,145,131)","size":1.0},{"source":"130","target":"59","id":"563","attributes":{},"color":"rgb(174,108,165)","size":1.0},{"source":"132","target":"84","id":"603","attributes":{},"color":"rgb(152,69,238)","size":1.0},{"source":"176","target":"80","id":"926","attributes":{},"color":"rgb(176,128,137)","size":1.0},{"source":"70","target":"86","id":"211","attributes":{},"color":"rgb(149,105,191)","size":1.0},{"source":"87","target":"41","id":"332","attributes":{},"color":"rgb(184,56,227)","size":1.0},{"source":"49","target":"182","id":"119","attributes":{},"color":"rgb(80,111,243)","size":1.0},{"source":"70","target":"172","id":"213","attributes":{},"color":"rgb(186,83,188)","size":1.0},{"source":"119","target":"80","id":"493","attributes":{},"color":"rgb(163,135,138)","size":1.0},{"source":"172","target":"207","id":"894","attributes":{},"color":"rgb(103,97,241)","size":1.0},{"source":"165","target":"154","id":"844","attributes":{},"color":"rgb(136,79,239)","size":1.0},{"source":"169","target":"130","id":"863","attributes":{},"color":"rgb(159,117,166)","size":1.0},{"source":"204","target":"88","id":"1165","attributes":{},"color":"rgb(81,110,243)","size":1.0},{"source":"228","target":"130","id":"1280","attributes":{},"color":"rgb(146,125,167)","size":1.0},{"source":"122","target":"145","id":"508","attributes":{},"color":"rgb(70,117,244)","size":1.0},{"source":"154","target":"25","id":"752","attributes":{},"color":"rgb(143,75,238)","size":1.0},{"source":"173","target":"65","id":"901","attributes":{},"color":"rgb(158,80,217)","size":1.0},{"source":"50","target":"6","id":"124","attributes":{},"color":"rgb(150,149,132)","size":1.0},{"source":"115","target":"54","id":"471","attributes":{},"color":"rgb(74,114,244)","size":1.0},{"source":"19","target":"112","id":"33","attributes":{},"color":"rgb(63,120,245)","size":1.0},{"source":"136","target":"98","id":"677","attributes":{},"color":"rgb(169,144,121)","size":1.0},{"source":"199","target":"136","id":"1095","attributes":{},"color":"rgb(160,149,122)","size":1.0},{"source":"136","target":"24","id":"632","attributes":{},"color":"rgb(182,136,120)","size":1.0},{"source":"53","target":"118","id":"154","attributes":{},"color":"rgb(152,74,232)","size":1.0},{"source":"50","target":"30","id":"136","attributes":{},"color":"rgb(164,140,130)","size":1.0},{"source":"72","target":"93","id":"220","attributes":{},"color":"rgb(75,114,244)","size":1.0},{"source":"77","target":"74","id":"235","attributes":{},"color":"rgb(66,119,245)","size":1.0},{"source":"96","target":"80","id":"371","attributes":{},"color":"rgb(167,133,137)","size":1.0},{"source":"130","target":"35","id":"553","attributes":{},"color":"rgb(175,108,165)","size":1.0},{"source":"123","target":"87","id":"514","attributes":{},"color":"rgb(99,100,242)","size":1.0},{"source":"136","target":"0","id":"621","attributes":{},"color":"rgb(171,143,121)","size":1.0},{"source":"22","target":"77","id":"39","attributes":{},"color":"rgb(87,107,243)","size":1.0},{"source":"80","target":"50","id":"268","attributes":{},"color":"rgb(252,162,24)","size":1.0},{"source":"171","target":"30","id":"869","attributes":{},"color":"rgb(88,106,243)","size":1.0},{"source":"87","target":"97","id":"340","attributes":{},"color":"rgb(106,95,241)","size":1.0},{"source":"165","target":"50","id":"839","attributes":{},"color":"rgb(152,147,131)","size":1.0},{"source":"194","target":"115","id":"1060","attributes":{},"color":"rgb(87,107,243)","size":1.0},{"source":"69","target":"213","id":"194","attributes":{},"color":"rgb(94,103,242)","size":1.0},{"source":"154","target":"97","id":"772","attributes":{},"color":"rgb(147,72,238)","size":1.0},{"source":"70","target":"77","id":"210","attributes":{},"color":"rgb(157,100,190)","size":1.0},{"source":"136","target":"72","id":"663","attributes":{},"color":"rgb(165,146,122)","size":1.0},{"source":"168","target":"70","id":"849","attributes":{},"color":"rgb(162,97,190)","size":1.0},{"source":"168","target":"50","id":"848","attributes":{},"color":"rgb(169,137,130)","size":1.0},{"source":"128","target":"70","id":"537","attributes":{},"color":"rgb(167,94,189)","size":1.0},{"source":"206","target":"173","id":"1183","attributes":{},"color":"rgb(145,88,218)","size":1.0},{"source":"7","target":"177","id":"9","attributes":{},"color":"rgb(47,131,247)","size":1.0},{"source":"82","target":"219","id":"292","attributes":{},"color":"rgb(83,109,243)","size":1.0},{"source":"44","target":"21","id":"98","attributes":{},"color":"rgb(86,108,243)","size":1.0},{"source":"50","target":"49","id":"149","attributes":{},"color":"rgb(175,134,129)","size":1.0},{"source":"141","target":"136","id":"712","attributes":{},"color":"rgb(155,152,123)","size":1.0},{"source":"41","target":"25","id":"82","attributes":{},"color":"rgb(148,77,230)","size":1.0},{"source":"195","target":"173","id":"1080","attributes":{},"color":"rgb(159,80,217)","size":1.0},{"source":"141","target":"134","id":"711","attributes":{},"color":"rgb(75,114,244)","size":1.0},{"source":"50","target":"8","id":"125","attributes":{},"color":"rgb(154,146,131)","size":1.0},{"source":"195","target":"154","id":"1079","attributes":{},"color":"rgb(153,69,237)","size":1.0},{"source":"136","target":"101","id":"679","attributes":{},"color":"rgb(155,152,123)","size":1.0},{"source":"192","target":"68","id":"1020","attributes":{},"color":"rgb(159,65,237)","size":1.0},{"source":"130","target":"79","id":"571","attributes":{},"color":"rgb(163,115,166)","size":1.0},{"source":"128","target":"41","id":"534","attributes":{},"color":"rgb(163,69,229)","size":1.0},{"source":"80","target":"18","id":"252","attributes":{},"color":"rgb(243,114,97)","size":1.0},{"source":"7","target":"173","id":"8","attributes":{},"color":"rgb(140,91,219)","size":1.0},{"source":"203","target":"70","id":"1150","attributes":{},"color":"rgb(158,99,190)","size":1.0},{"source":"50","target":"11","id":"128","attributes":{},"color":"rgb(171,136,130)","size":1.0},{"source":"88","target":"32","id":"344","attributes":{},"color":"rgb(57,124,245)","size":1.0},{"source":"130","target":"120","id":"590","attributes":{},"color":"rgb(170,111,165)","size":1.0},{"source":"189","target":"70","id":"986","attributes":{},"color":"rgb(174,90,189)","size":1.0},{"source":"117","target":"80","id":"478","attributes":{},"color":"rgb(149,144,139)","size":1.0},{"source":"93","target":"106","id":"357","attributes":{},"color":"rgb(91,104,242)","size":1.0},{"source":"169","target":"80","id":"862","attributes":{},"color":"rgb(162,136,138)","size":1.0},{"source":"45","target":"180","id":"109","attributes":{},"color":"rgb(83,109,243)","size":1.0},{"source":"164","target":"128","id":"833","attributes":{},"color":"rgb(96,102,242)","size":1.0},{"source":"111","target":"82","id":"457","attributes":{},"color":"rgb(96,101,242)","size":1.0},{"source":"105","target":"87","id":"421","attributes":{},"color":"rgb(126,84,240)","size":1.0},{"source":"45","target":"83","id":"106","attributes":{},"color":"rgb(83,109,243)","size":1.0},{"source":"57","target":"50","id":"163","attributes":{},"color":"rgb(150,149,132)","size":1.0},{"source":"200","target":"118","id":"1119","attributes":{},"color":"rgb(237,79,150)","size":1.0},{"source":"105","target":"180","id":"425","attributes":{},"color":"rgb(85,108,243)","size":1.0},{"source":"9","target":"152","id":"14","attributes":{},"color":"rgb(99,100,242)","size":1.0},{"source":"192","target":"24","id":"1013","attributes":{},"color":"rgb(166,61,236)","size":1.0},{"source":"128","target":"50","id":"536","attributes":{},"color":"rgb(174,134,129)","size":1.0},{"source":"8","target":"53","id":"10","attributes":{},"color":"rgb(65,120,245)","size":1.0},{"source":"37","target":"18","id":"64","attributes":{},"color":"rgb(180,78,201)","size":1.0},{"source":"134","target":"193","id":"616","attributes":{},"color":"rgb(82,110,243)","size":1.0},{"source":"200","target":"156","id":"1128","attributes":{},"color":"rgb(146,128,163)","size":1.0},{"source":"203","target":"168","id":"1156","attributes":{},"color":"rgb(82,110,243)","size":1.0},{"source":"185","target":"136","id":"969","attributes":{},"color":"rgb(172,142,121)","size":1.0},{"source":"86","target":"75","id":"325","attributes":{},"color":"rgb(69,117,244)","size":1.0},{"source":"165","target":"106","id":"843","attributes":{},"color":"rgb(79,111,243)","size":1.0},{"source":"200","target":"90","id":"1116","attributes":{},"color":"rgb(154,123,162)","size":1.0},{"source":"109","target":"70","id":"443","attributes":{},"color":"rgb(170,93,189)","size":1.0},{"source":"69","target":"119","id":"190","attributes":{},"color":"rgb(89,106,243)","size":1.0},{"source":"87","target":"80","id":"337","attributes":{},"color":"rgb(195,117,135)","size":1.0},{"source":"96","target":"106","id":"374","attributes":{},"color":"rgb(95,102,242)","size":1.0},{"source":"136","target":"54","id":"653","attributes":{},"color":"rgb(151,155,123)","size":1.0},{"source":"136","target":"64","id":"657","attributes":{},"color":"rgb(151,155,123)","size":1.0},{"source":"200","target":"41","id":"1102","attributes":{},"color":"rgb(237,80,148)","size":1.0},{"source":"30","target":"11","id":"51","attributes":{},"color":"rgb(82,109,243)","size":1.0},{"source":"180","target":"130","id":"946","attributes":{},"color":"rgb(151,122,167)","size":1.0},{"source":"110","target":"80","id":"452","attributes":{},"color":"rgb(161,136,138)","size":1.0},{"source":"80","target":"75","id":"275","attributes":{},"color":"rgb(164,134,138)","size":1.0},{"source":"200","target":"68","id":"1109","attributes":{},"color":"rgb(171,113,161)","size":1.0},{"source":"70","target":"41","id":"201","attributes":{},"color":"rgb(234,61,176)","size":1.0},{"source":"213","target":"20","id":"1217","attributes":{},"color":"rgb(85,108,243)","size":1.0},{"source":"80","target":"79","id":"278","attributes":{},"color":"rgb(166,133,138)","size":1.0},{"source":"194","target":"25","id":"1055","attributes":{},"color":"rgb(69,117,244)","size":1.0},{"source":"185","target":"114","id":"967","attributes":{},"color":"rgb(73,114,244)","size":1.0},{"source":"118","target":"66","id":"482","attributes":{},"color":"rgb(138,82,233)","size":1.0},{"source":"130","target":"105","id":"581","attributes":{},"color":"rgb(179,106,164)","size":1.0},{"source":"168","target":"37","id":"845","attributes":{},"color":"rgb(105,96,241)","size":1.0},{"source":"154","target":"80","id":"768","attributes":{},"color":"rgb(235,94,132)","size":1.0},{"source":"80","target":"125","id":"281","attributes":{},"color":"rgb(156,139,138)","size":1.0},{"source":"84","target":"181","id":"317","attributes":{},"color":"rgb(136,79,239)","size":1.0},{"source":"171","target":"136","id":"878","attributes":{},"color":"rgb(178,139,121)","size":1.0},{"source":"111","target":"224","id":"462","attributes":{},"color":"rgb(81,110,243)","size":1.0},{"source":"136","target":"44","id":"646","attributes":{},"color":"rgb(183,136,120)","size":1.0},{"source":"154","target":"111","id":"777","attributes":{},"color":"rgb(164,63,236)","size":1.0},{"source":"228","target":"50","id":"1279","attributes":{},"color":"rgb(150,149,132)","size":1.0},{"source":"80","target":"29","id":"258","attributes":{},"color":"rgb(149,144,139)","size":1.0},{"source":"154","target":"28","id":"754","attributes":{},"color":"rgb(136,79,239)","size":1.0},{"source":"223","target":"136","id":"1268","attributes":{},"color":"rgb(166,145,122)","size":1.0},{"source":"203","target":"189","id":"1158","attributes":{},"color":"rgb(93,103,242)","size":1.0},{"source":"118","target":"80","id":"484","attributes":{},"color":"rgb(240,95,126)","size":1.0},{"source":"69","target":"41","id":"186","attributes":{},"color":"rgb(166,67,229)","size":1.0},{"source":"102","target":"127","id":"401","attributes":{},"color":"rgb(77,112,244)","size":1.0},{"source":"127","target":"50","id":"522","attributes":{},"color":"rgb(166,139,130)","size":1.0},{"source":"182","target":"130","id":"955","attributes":{},"color":"rgb(154,120,166)","size":1.0},{"source":"229","target":"77","id":"1285","attributes":{},"color":"rgb(69,117,244)","size":1.0},{"source":"130","target":"22","id":"550","attributes":{},"color":"rgb(172,110,165)","size":1.0},{"source":"226","target":"105","id":"1275","attributes":{},"color":"rgb(82,109,243)","size":1.0},{"source":"70","target":"37","id":"200","attributes":{},"color":"rgb(182,86,188)","size":1.0},{"source":"191","target":"50","id":"1004","attributes":{},"color":"rgb(163,141,130)","size":1.0},{"source":"97","target":"134","id":"382","attributes":{},"color":"rgb(85,108,243)","size":1.0},{"source":"193","target":"154","id":"1054","attributes":{},"color":"rgb(144,74,238)","size":1.0},{"source":"87","target":"25","id":"330","attributes":{},"color":"rgb(102,98,242)","size":1.0},{"source":"95","target":"50","id":"365","attributes":{},"color":"rgb(153,147,131)","size":1.0},{"source":"130","target":"13","id":"547","attributes":{},"color":"rgb(151,122,167)","size":1.0},{"source":"111","target":"168","id":"461","attributes":{},"color":"rgb(97,101,242)","size":1.0},{"source":"125","target":"50","id":"517","attributes":{},"color":"rgb(157,144,131)","size":1.0},{"source":"194","target":"50","id":"1057","attributes":{},"color":"rgb(162,141,130)","size":1.0},{"source":"105","target":"63","id":"417","attributes":{},"color":"rgb(89,105,243)","size":1.0},{"source":"45","target":"123","id":"107","attributes":{},"color":"rgb(84,109,243)","size":1.0},{"source":"191","target":"134","id":"1007","attributes":{},"color":"rgb(85,108,243)","size":1.0},{"source":"65","target":"48","id":"179","attributes":{},"color":"rgb(84,108,243)","size":1.0},{"source":"229","target":"136","id":"1287","attributes":{},"color":"rgb(159,149,122)","size":1.0},{"source":"80","target":"43","id":"263","attributes":{},"color":"rgb(152,142,139)","size":1.0},{"source":"130","target":"76","id":"568","attributes":{},"color":"rgb(146,125,167)","size":1.0},{"source":"127","target":"109","id":"528","attributes":{},"color":"rgb(90,105,243)","size":1.0},{"source":"191","target":"70","id":"1005","attributes":{},"color":"rgb(156,101,190)","size":1.0},{"source":"36","target":"123","id":"63","attributes":{},"color":"rgb(73,115,244)","size":1.0},{"source":"101","target":"87","id":"394","attributes":{},"color":"rgb(97,101,242)","size":1.0},{"source":"136","target":"85","id":"671","attributes":{},"color":"rgb(153,153,123)","size":1.0},{"source":"50","target":"35","id":"141","attributes":{},"color":"rgb(179,131,129)","size":1.0},{"source":"70","target":"48","id":"204","attributes":{},"color":"rgb(162,97,190)","size":1.0},{"source":"130","target":"96","id":"578","attributes":{},"color":"rgb(164,114,165)","size":1.0},{"source":"130","target":"128","id":"593","attributes":{},"color":"rgb(170,111,165)","size":1.0},{"source":"213","target":"154","id":"1227","attributes":{},"color":"rgb(153,69,237)","size":1.0},{"source":"163","target":"131","id":"823","attributes":{},"color":"rgb(65,119,245)","size":1.0},{"source":"185","target":"41","id":"962","attributes":{},"color":"rgb(160,70,229)","size":1.0},{"source":"18","target":"130","id":"31","attributes":{},"color":"rgb(240,95,125)","size":1.0},{"source":"28","target":"120","id":"50","attributes":{},"color":"rgb(74,114,244)","size":1.0},{"source":"144","target":"18","id":"716","attributes":{},"color":"rgb(141,101,204)","size":1.0},{"source":"193","target":"80","id":"1051","attributes":{},"color":"rgb(160,137,138)","size":1.0},{"source":"132","target":"48","id":"599","attributes":{},"color":"rgb(88,106,243)","size":1.0},{"source":"51","target":"26","id":"150","attributes":{},"color":"rgb(52,127,246)","size":1.0},{"source":"218","target":"154","id":"1244","attributes":{},"color":"rgb(138,78,239)","size":1.0},{"source":"35","target":"103","id":"60","attributes":{},"color":"rgb(86,107,243)","size":1.0},{"source":"168","target":"136","id":"856","attributes":{},"color":"rgb(170,143,121)","size":1.0},{"source":"228","target":"219","id":"1281","attributes":{},"color":"rgb(64,120,245)","size":1.0},{"source":"75","target":"50","id":"227","attributes":{},"color":"rgb(165,139,130)","size":1.0},{"source":"165","target":"70","id":"840","attributes":{},"color":"rgb(145,107,191)","size":1.0},{"source":"80","target":"34","id":"259","attributes":{},"color":"rgb(156,139,138)","size":1.0},{"source":"190","target":"80","id":"999","attributes":{},"color":"rgb(152,141,139)","size":1.0},{"source":"207","target":"28","id":"1186","attributes":{},"color":"rgb(63,121,245)","size":1.0},{"source":"189","target":"84","id":"988","attributes":{},"color":"rgb(161,64,237)","size":1.0},{"source":"30","target":"168","id":"53","attributes":{},"color":"rgb(80,111,243)","size":1.0},{"source":"98","target":"93","id":"389","attributes":{},"color":"rgb(79,111,243)","size":1.0},{"source":"136","target":"65","id":"658","attributes":{},"color":"rgb(169,144,121)","size":1.0},{"source":"176","target":"87","id":"927","attributes":{},"color":"rgb(120,88,240)","size":1.0},{"source":"200","target":"192","id":"1138","attributes":{},"color":"rgb(233,77,156)","size":1.0},{"source":"189","target":"80","id":"987","attributes":{},"color":"rgb(180,125,136)","size":1.0},{"source":"226","target":"50","id":"1274","attributes":{},"color":"rgb(152,147,131)","size":1.0},{"source":"109","target":"200","id":"449","attributes":{},"color":"rgb(173,112,161)","size":1.0},{"source":"193","target":"53","id":"1049","attributes":{},"color":"rgb(71,116,244)","size":1.0},{"source":"229","target":"154","id":"1288","attributes":{},"color":"rgb(142,75,238)","size":1.0},{"source":"136","target":"87","id":"672","attributes":{},"color":"rgb(197,128,119)","size":1.0},{"source":"189","target":"41","id":"982","attributes":{},"color":"rgb(169,65,228)","size":1.0},{"source":"200","target":"195","id":"1141","attributes":{},"color":"rgb(165,116,161)","size":1.0},{"source":"136","target":"119","id":"690","attributes":{},"color":"rgb(165,146,122)","size":1.0},{"source":"110","target":"70","id":"451","attributes":{},"color":"rgb(155,101,190)","size":1.0},{"source":"136","target":"45","id":"647","attributes":{},"color":"rgb(181,137,120)","size":1.0},{"source":"1","target":"61","id":"2","attributes":{},"color":"rgb(74,114,244)","size":1.0},{"source":"68","target":"50","id":"183","attributes":{},"color":"rgb(175,134,129)","size":1.0},{"source":"159","target":"136","id":"804","attributes":{},"color":"rgb(166,146,122)","size":1.0},{"source":"59","target":"21","id":"166","attributes":{},"color":"rgb(82,110,243)","size":1.0},{"source":"136","target":"133","id":"698","attributes":{},"color":"rgb(167,145,122)","size":1.0},{"source":"104","target":"185","id":"411","attributes":{},"color":"rgb(89,106,243)","size":1.0},{"source":"134","target":"50","id":"610","attributes":{},"color":"rgb(174,134,129)","size":1.0},{"source":"136","target":"103","id":"681","attributes":{},"color":"rgb(160,149,122)","size":1.0},{"source":"163","target":"154","id":"826","attributes":{},"color":"rgb(146,73,238)","size":1.0},{"source":"70","target":"43","id":"202","attributes":{},"color":"rgb(146,107,191)","size":1.0},{"source":"84","target":"150","id":"314","attributes":{},"color":"rgb(134,80,239)","size":1.0},{"source":"130","target":"113","id":"586","attributes":{},"color":"rgb(146,125,167)","size":1.0},{"source":"173","target":"41","id":"898","attributes":{},"color":"rgb(231,44,203)","size":1.0},{"source":"154","target":"95","id":"771","attributes":{},"color":"rgb(136,79,239)","size":1.0},{"source":"105","target":"35","id":"414","attributes":{},"color":"rgb(109,94,241)","size":1.0},{"source":"145","target":"70","id":"718","attributes":{},"color":"rgb(153,102,191)","size":1.0},{"source":"136","target":"9","id":"625","attributes":{},"color":"rgb(173,142,121)","size":1.0},{"source":"154","target":"119","id":"779","attributes":{},"color":"rgb(147,72,238)","size":1.0},{"source":"187","target":"173","id":"975","attributes":{},"color":"rgb(140,91,219)","size":1.0},{"source":"206","target":"200","id":"1185","attributes":{},"color":"rgb(151,124,163)","size":1.0},{"source":"176","target":"175","id":"934","attributes":{},"color":"rgb(87,107,243)","size":1.0},{"source":"186","target":"30","id":"972","attributes":{},"color":"rgb(65,119,245)","size":1.0},{"source":"195","target":"192","id":"1081","attributes":{},"color":"rgb(154,68,237)","size":1.0},{"source":"136","target":"30","id":"635","attributes":{},"color":"rgb(165,146,122)","size":1.0},{"source":"84","target":"70","id":"309","attributes":{},"color":"rgb(226,60,185)","size":1.0},{"source":"130","target":"48","id":"559","attributes":{},"color":"rgb(165,114,165)","size":1.0},{"source":"152","target":"41","id":"731","attributes":{},"color":"rgb(168,65,228)","size":1.0},{"source":"21","target":"111","id":"38","attributes":{},"color":"rgb(84,109,243)","size":1.0},{"source":"153","target":"136","id":"743","attributes":{},"color":"rgb(151,155,123)","size":1.0},{"source":"192","target":"50","id":"1016","attributes":{},"color":"rgb(237,98,124)","size":1.0},{"source":"37","target":"213","id":"71","attributes":{},"color":"rgb(105,96,241)","size":1.0},{"source":"159","target":"70","id":"800","attributes":{},"color":"rgb(158,100,190)","size":1.0},{"source":"213","target":"50","id":"1219","attributes":{},"color":"rgb(169,137,130)","size":1.0},{"source":"172","target":"96","id":"887","attributes":{},"color":"rgb(108,94,241)","size":1.0},{"source":"136","target":"115","id":"688","attributes":{},"color":"rgb(178,138,121)","size":1.0},{"source":"106","target":"35","id":"427","attributes":{},"color":"rgb(106,95,241)","size":1.0},{"source":"119","target":"70","id":"492","attributes":{},"color":"rgb(157,100,190)","size":1.0},{"source":"157","target":"53","id":"794","attributes":{},"color":"rgb(72,116,244)","size":1.0},{"source":"37","target":"197","id":"70","attributes":{},"color":"rgb(88,106,243)","size":1.0},{"source":"87","target":"65","id":"335","attributes":{},"color":"rgb(111,93,241)","size":1.0},{"source":"198","target":"154","id":"1093","attributes":{},"color":"rgb(135,79,239)","size":1.0},{"source":"150","target":"50","id":"727","attributes":{},"color":"rgb(153,146,131)","size":1.0},{"source":"173","target":"82","id":"905","attributes":{},"color":"rgb(159,80,217)","size":1.0},{"source":"104","target":"41","id":"408","attributes":{},"color":"rgb(159,71,229)","size":1.0},{"source":"136","target":"132","id":"697","attributes":{},"color":"rgb(173,142,121)","size":1.0},{"source":"111","target":"97","id":"459","attributes":{},"color":"rgb(91,104,242)","size":1.0},{"source":"109","target":"49","id":"441","attributes":{},"color":"rgb(99,100,242)","size":1.0},{"source":"80","target":"11","id":"250","attributes":{},"color":"rgb(170,131,137)","size":1.0},{"source":"171","target":"86","id":"876","attributes":{},"color":"rgb(80,111,243)","size":1.0},{"source":"135","target":"97","id":"620","attributes":{},"color":"rgb(71,116,244)","size":1.0},{"source":"227","target":"36","id":"1277","attributes":{},"color":"rgb(67,119,245)","size":1.0},{"source":"136","target":"124","id":"692","attributes":{},"color":"rgb(151,155,123)","size":1.0},{"source":"80","target":"2","id":"244","attributes":{},"color":"rgb(155,140,138)","size":1.0},{"source":"185","target":"80","id":"964","attributes":{},"color":"rgb(170,131,137)","size":1.0},{"source":"98","target":"80","id":"387","attributes":{},"color":"rgb(167,133,137)","size":1.0},{"source":"75","target":"77","id":"228","attributes":{},"color":"rgb(76,113,244)","size":1.0},{"source":"192","target":"176","id":"1042","attributes":{},"color":"rgb(161,64,237)","size":1.0},{"source":"193","target":"70","id":"1050","attributes":{},"color":"rgb(154,102,191)","size":1.0},{"source":"181","target":"93","id":"950","attributes":{},"color":"rgb(66,119,245)","size":1.0},{"source":"77","target":"125","id":"237","attributes":{},"color":"rgb(68,118,244)","size":1.0},{"source":"154","target":"4","id":"746","attributes":{},"color":"rgb(136,79,239)","size":1.0},{"source":"10","target":"223","id":"21","attributes":{},"color":"rgb(88,106,243)","size":1.0},{"source":"25","target":"69","id":"45","attributes":{},"color":"rgb(84,108,243)","size":1.0},{"source":"195","target":"41","id":"1067","attributes":{},"color":"rgb(158,72,229)","size":1.0},{"source":"22","target":"104","id":"40","attributes":{},"color":"rgb(94,103,242)","size":1.0},{"source":"50","target":"33","id":"139","attributes":{},"color":"rgb(150,149,132)","size":1.0},{"source":"130","target":"65","id":"565","attributes":{},"color":"rgb(164,114,165)","size":1.0},{"source":"130","target":"122","id":"591","attributes":{},"color":"rgb(158,118,166)","size":1.0},{"source":"207","target":"45","id":"1187","attributes":{},"color":"rgb(90,105,242)","size":1.0},{"source":"142","target":"70","id":"714","attributes":{},"color":"rgb(143,109,192)","size":1.0},{"source":"168","target":"195","id":"857","attributes":{},"color":"rgb(86,108,243)","size":1.0},{"source":"130","target":"19","id":"549","attributes":{},"color":"rgb(160,117,166)","size":1.0},{"source":"200","target":"63","id":"1106","attributes":{},"color":"rgb(155,122,162)","size":1.0},{"source":"69","target":"92","id":"189","attributes":{},"color":"rgb(77,113,244)","size":1.0},{"source":"223","target":"45","id":"1261","attributes":{},"color":"rgb(93,103,242)","size":1.0},{"source":"48","target":"35","id":"112","attributes":{},"color":"rgb(95,102,242)","size":1.0},{"source":"130","target":"87","id":"577","attributes":{},"color":"rgb(192,98,163)","size":1.0},{"source":"198","target":"80","id":"1089","attributes":{},"color":"rgb(151,142,139)","size":1.0},{"source":"61","target":"30","id":"170","attributes":{},"color":"rgb(81,110,243)","size":1.0},{"source":"50","target":"2","id":"122","attributes":{},"color":"rgb(156,145,131)","size":1.0},{"source":"136","target":"51","id":"651","attributes":{},"color":"rgb(153,153,123)","size":1.0},{"source":"59","target":"50","id":"167","attributes":{},"color":"rgb(178,132,129)","size":1.0},{"source":"200","target":"173","id":"1132","attributes":{},"color":"rgb(239,88,135)","size":1.0},{"source":"75","target":"49","id":"226","attributes":{},"color":"rgb(87,107,243)","size":1.0},{"source":"106","target":"41","id":"428","attributes":{},"color":"rgb(168,65,228)","size":1.0},{"source":"178","target":"80","id":"938","attributes":{},"color":"rgb(149,144,139)","size":1.0},{"source":"192","target":"111","id":"1028","attributes":{},"color":"rgb(165,62,236)","size":1.0},{"source":"30","target":"169","id":"54","attributes":{},"color":"rgb(74,114,244)","size":1.0},{"source":"132","target":"50","id":"600","attributes":{},"color":"rgb(172,136,130)","size":1.0},{"source":"154","target":"22","id":"751","attributes":{},"color":"rgb(160,65,237)","size":1.0},{"source":"80","target":"41","id":"262","attributes":{},"color":"rgb(240,96,124)","size":1.0},{"source":"115","target":"84","id":"472","attributes":{},"color":"rgb(158,66,237)","size":1.0},{"source":"154","target":"11","id":"749","attributes":{},"color":"rgb(155,68,237)","size":1.0},{"source":"180","target":"169","id":"947","attributes":{},"color":"rgb(65,119,245)","size":1.0},{"source":"96","target":"149","id":"375","attributes":{},"color":"rgb(70,116,244)","size":1.0},{"source":"49","target":"176","id":"118","attributes":{},"color":"rgb(99,100,242)","size":1.0},{"source":"119","target":"211","id":"495","attributes":{},"color":"rgb(66,119,245)","size":1.0},{"source":"80","target":"27","id":"257","attributes":{},"color":"rgb(155,140,138)","size":1.0},{"source":"84","target":"25","id":"299","attributes":{},"color":"rgb(140,76,239)","size":1.0},{"source":"215","target":"50","id":"1230","attributes":{},"color":"rgb(155,145,131)","size":1.0},{"source":"168","target":"48","id":"847","attributes":{},"color":"rgb(85,108,243)","size":1.0},{"source":"217","target":"41","id":"1235","attributes":{},"color":"rgb(154,73,230)","size":1.0},{"source":"10","target":"105","id":"19","attributes":{},"color":"rgb(105,96,241)","size":1.0},{"source":"41","target":"35","id":"86","attributes":{},"color":"rgb(168,66,229)","size":1.0},{"source":"202","target":"79","id":"1144","attributes":{},"color":"rgb(67,118,245)","size":1.0},{"source":"9","target":"106","id":"12","attributes":{},"color":"rgb(99,100,242)","size":1.0},{"source":"55","target":"105","id":"161","attributes":{},"color":"rgb(83,109,243)","size":1.0},{"source":"86","target":"50","id":"324","attributes":{},"color":"rgb(156,145,131)","size":1.0},{"source":"213","target":"136","id":"1226","attributes":{},"color":"rgb(170,143,121)","size":1.0},{"source":"136","target":"83","id":"669","attributes":{},"color":"rgb(156,151,123)","size":1.0},{"source":"27","target":"98","id":"47","attributes":{},"color":"rgb(71,116,244)","size":1.0},{"source":"97","target":"70","id":"381","attributes":{},"color":"rgb(156,100,190)","size":1.0},{"source":"110","target":"13","id":"450","attributes":{},"color":"rgb(65,120,245)","size":1.0},{"source":"41","target":"9","id":"77","attributes":{},"color":"rgb(160,70,229)","size":1.0},{"source":"200","target":"174","id":"1133","attributes":{},"color":"rgb(146,128,163)","size":1.0},{"source":"223","target":"80","id":"1265","attributes":{},"color":"rgb(164,134,138)","size":1.0},{"source":"171","target":"70","id":"874","attributes":{},"color":"rgb(170,93,189)","size":1.0},{"source":"171","target":"219","id":"880","attributes":{},"color":"rgb(91,104,243)","size":1.0},{"source":"82","target":"157","id":"290","attributes":{},"color":"rgb(78,112,244)","size":1.0},{"source":"172","target":"130","id":"890","attributes":{},"color":"rgb(189,100,163)","size":1.0},{"source":"70","target":"50","id":"205","attributes":{},"color":"rgb(246,127,77)","size":1.0},{"source":"200","target":"187","id":"1135","attributes":{},"color":"rgb(146,128,163)","size":1.0},{"source":"136","target":"49","id":"649","attributes":{},"color":"rgb(176,140,121)","size":1.0},{"source":"70","target":"211","id":"215","attributes":{},"color":"rgb(148,105,191)","size":1.0},{"source":"127","target":"70","id":"523","attributes":{},"color":"rgb(159,99,190)","size":1.0},{"source":"136","target":"79","id":"666","attributes":{},"color":"rgb(168,144,122)","size":1.0},{"source":"50","target":"31","id":"137","attributes":{},"color":"rgb(163,141,130)","size":1.0},{"source":"97","target":"59","id":"378","attributes":{},"color":"rgb(89,105,243)","size":1.0},{"source":"112","target":"175","id":"465","attributes":{},"color":"rgb(63,121,245)","size":1.0},{"source":"165","target":"35","id":"837","attributes":{},"color":"rgb(79,111,244)","size":1.0},{"source":"35","target":"111","id":"61","attributes":{},"color":"rgb(107,95,241)","size":1.0},{"source":"145","target":"13","id":"717","attributes":{},"color":"rgb(63,121,245)","size":1.0},{"source":"208","target":"10","id":"1194","attributes":{},"color":"rgb(77,113,244)","size":1.0},{"source":"120","target":"36","id":"498","attributes":{},"color":"rgb(91,104,242)","size":1.0},{"source":"11","target":"106","id":"24","attributes":{},"color":"rgb(98,100,242)","size":1.0},{"source":"123","target":"84","id":"513","attributes":{},"color":"rgb(137,78,239)","size":1.0},{"source":"88","target":"59","id":"346","attributes":{},"color":"rgb(83,109,243)","size":1.0},{"source":"132","target":"20","id":"598","attributes":{},"color":"rgb(87,107,243)","size":1.0},{"source":"210","target":"154","id":"1204","attributes":{},"color":"rgb(150,71,238)","size":1.0},{"source":"159","target":"72","id":"801","attributes":{},"color":"rgb(76,113,244)","size":1.0},{"source":"159","target":"50","id":"799","attributes":{},"color":"rgb(165,140,130)","size":1.0},{"source":"93","target":"185","id":"360","attributes":{},"color":"rgb(82,109,243)","size":1.0},{"source":"169","target":"50","id":"860","attributes":{},"color":"rgb(163,141,130)","size":1.0},{"source":"111","target":"125","id":"460","attributes":{},"color":"rgb(84,108,243)","size":1.0},{"source":"207","target":"136","id":"1192","attributes":{},"color":"rgb(164,147,122)","size":1.0},{"source":"10","target":"133","id":"20","attributes":{},"color":"rgb(89,106,243)","size":1.0},{"source":"130","target":"111","id":"585","attributes":{},"color":"rgb(176,107,164)","size":1.0},{"source":"31","target":"63","id":"55","attributes":{},"color":"rgb(69,117,244)","size":1.0},{"source":"42","target":"18","id":"95","attributes":{},"color":"rgb(141,101,204)","size":1.0},{"source":"173","target":"103","id":"906","attributes":{},"color":"rgb(149,85,218)","size":1.0},{"source":"136","target":"80","id":"667","attributes":{},"color":"rgb(253,168,16)","size":1.0},{"source":"69","target":"87","id":"188","attributes":{},"color":"rgb(121,87,240)","size":1.0},{"source":"70","target":"11","id":"197","attributes":{},"color":"rgb(164,96,190)","size":1.0},{"source":"186","target":"80","id":"974","attributes":{},"color":"rgb(153,141,139)","size":1.0},{"source":"95","target":"41","id":"362","attributes":{},"color":"rgb(141,81,231)","size":1.0},{"source":"130","target":"69","id":"566","attributes":{},"color":"rgb(174,109,165)","size":1.0},{"source":"163","target":"127","id":"821","attributes":{},"color":"rgb(76,113,244)","size":1.0},{"source":"55","target":"37","id":"159","attributes":{},"color":"rgb(89,106,243)","size":1.0},{"source":"192","target":"11","id":"1011","attributes":{},"color":"rgb(156,67,237)","size":1.0},{"source":"170","target":"136","id":"867","attributes":{},"color":"rgb(151,155,123)","size":1.0},{"source":"172","target":"208","id":"895","attributes":{},"color":"rgb(95,102,242)","size":1.0},{"source":"176","target":"106","id":"928","attributes":{},"color":"rgb(104,97,241)","size":1.0},{"source":"183","target":"80","id":"958","attributes":{},"color":"rgb(149,144,139)","size":1.0},{"source":"168","target":"130","id":"855","attributes":{},"color":"rgb(165,114,165)","size":1.0},{"source":"87","target":"230","id":"343","attributes":{},"color":"rgb(93,104,243)","size":1.0},{"source":"151","target":"136","id":"729","attributes":{},"color":"rgb(151,155,123)","size":1.0},{"source":"201","target":"130","id":"1143","attributes":{},"color":"rgb(146,125,167)","size":1.0},{"source":"205","target":"80","id":"1172","attributes":{},"color":"rgb(163,135,138)","size":1.0},{"source":"109","target":"24","id":"437","attributes":{},"color":"rgb(105,96,241)","size":1.0},{"source":"37","target":"87","id":"66","attributes":{},"color":"rgb(132,81,239)","size":1.0},{"source":"154","target":"135","id":"787","attributes":{},"color":"rgb(144,74,238)","size":1.0},{"source":"218","target":"192","id":"1245","attributes":{},"color":"rgb(139,77,239)","size":1.0},{"source":"157","target":"80","id":"796","attributes":{},"color":"rgb(161,137,138)","size":1.0},{"source":"68","target":"17","id":"182","attributes":{},"color":"rgb(72,116,244)","size":1.0},{"source":"80","target":"25","id":"256","attributes":{},"color":"rgb(158,138,138)","size":1.0},{"source":"41","target":"4","id":"76","attributes":{},"color":"rgb(141,81,231)","size":1.0},{"source":"136","target":"11","id":"627","attributes":{},"color":"rgb(172,142,121)","size":1.0},{"source":"50","target":"38","id":"144","attributes":{},"color":"rgb(153,146,131)","size":1.0},{"source":"41","target":"22","id":"81","attributes":{},"color":"rgb(165,68,229)","size":1.0},{"source":"175","target":"2","id":"918","attributes":{},"color":"rgb(66,119,244)","size":1.0},{"source":"84","target":"128","id":"313","attributes":{},"color":"rgb(155,68,237)","size":1.0},{"source":"223","target":"84","id":"1266","attributes":{},"color":"rgb(146,73,238)","size":1.0},{"source":"151","target":"50","id":"728","attributes":{},"color":"rgb(150,149,132)","size":1.0},{"source":"200","target":"65","id":"1107","attributes":{},"color":"rgb(164,117,161)","size":1.0},{"source":"213","target":"41","id":"1218","attributes":{},"color":"rgb(158,72,229)","size":1.0},{"source":"193","target":"50","id":"1048","attributes":{},"color":"rgb(161,142,131)","size":1.0},{"source":"164","target":"80","id":"832","attributes":{},"color":"rgb(173,129,137)","size":1.0},{"source":"210","target":"84","id":"1200","attributes":{},"color":"rgb(147,72,238)","size":1.0},{"source":"80","target":"69","id":"273","attributes":{},"color":"rgb(177,127,137)","size":1.0},{"source":"154","target":"0","id":"744","attributes":{},"color":"rgb(154,69,237)","size":1.0},{"source":"121","target":"70","id":"506","attributes":{},"color":"rgb(143,109,192)","size":1.0},{"source":"130","target":"46","id":"558","attributes":{},"color":"rgb(146,125,167)","size":1.0},{"source":"136","target":"43","id":"645","attributes":{},"color":"rgb(154,153,123)","size":1.0},{"source":"216","target":"173","id":"1232","attributes":{},"color":"rgb(140,91,219)","size":1.0},{"source":"120","target":"96","id":"504","attributes":{},"color":"rgb(89,105,242)","size":1.0},{"source":"198","target":"50","id":"1088","attributes":{},"color":"rgb(152,147,131)","size":1.0},{"source":"189","target":"106","id":"990","attributes":{},"color":"rgb(108,94,241)","size":1.0},{"source":"115","target":"203","id":"476","attributes":{},"color":"rgb(90,105,243)","size":1.0},{"source":"49","target":"70","id":"115","attributes":{},"color":"rgb(168,94,189)","size":1.0},{"source":"154","target":"37","id":"757","attributes":{},"color":"rgb(172,58,236)","size":1.0},{"source":"163","target":"50","id":"814","attributes":{},"color":"rgb(163,141,130)","size":1.0},{"source":"115","target":"87","id":"473","attributes":{},"color":"rgb(120,87,240)","size":1.0},{"source":"53","target":"189","id":"157","attributes":{},"color":"rgb(91,104,242)","size":1.0},{"source":"164","target":"53","id":"831","attributes":{},"color":"rgb(85,108,243)","size":1.0},{"source":"208","target":"50","id":"1195","attributes":{},"color":"rgb(154,146,131)","size":1.0},{"source":"138","target":"130","id":"706","attributes":{},"color":"rgb(149,123,167)","size":1.0},{"source":"136","target":"25","id":"633","attributes":{},"color":"rgb(160,149,122)","size":1.0},{"source":"130","target":"37","id":"554","attributes":{},"color":"rgb(185,102,164)","size":1.0},{"source":"74","target":"172","id":"223","attributes":{},"color":"rgb(95,102,242)","size":1.0},{"source":"168","target":"41","id":"846","attributes":{},"color":"rgb(158,72,229)","size":1.0},{"source":"65","target":"27","id":"178","attributes":{},"color":"rgb(72,116,244)","size":1.0},{"source":"204","target":"136","id":"1166","attributes":{},"color":"rgb(177,139,121)","size":1.0},{"source":"87","target":"50","id":"334","attributes":{},"color":"rgb(196,122,128)","size":1.0},{"source":"115","target":"45","id":"469","attributes":{},"color":"rgb(105,96,241)","size":1.0},{"source":"194","target":"154","id":"1063","attributes":{},"color":"rgb(146,73,238)","size":1.0},{"source":"154","target":"35","id":"756","attributes":{},"color":"rgb(163,63,237)","size":1.0},{"source":"143","target":"18","id":"715","attributes":{},"color":"rgb(141,101,204)","size":1.0},{"source":"130","target":"97","id":"579","attributes":{},"color":"rgb(159,117,166)","size":1.0},{"source":"136","target":"75","id":"665","attributes":{},"color":"rgb(166,145,122)","size":1.0},{"source":"157","target":"154","id":"798","attributes":{},"color":"rgb(145,74,238)","size":1.0},{"source":"44","target":"77","id":"101","attributes":{},"color":"rgb(93,103,242)","size":1.0},{"source":"4","target":"132","id":"5","attributes":{},"color":"rgb(71,116,244)","size":1.0},{"source":"189","target":"20","id":"979","attributes":{},"color":"rgb(96,101,242)","size":1.0},{"source":"185","target":"86","id":"966","attributes":{},"color":"rgb(75,114,244)","size":1.0},{"source":"168","target":"87","id":"851","attributes":{},"color":"rgb(112,92,241)","size":1.0},{"source":"192","target":"90","id":"1026","attributes":{},"color":"rgb(142,75,238)","size":1.0},{"source":"194","target":"136","id":"1062","attributes":{},"color":"rgb(163,147,122)","size":1.0},{"source":"205","target":"87","id":"1174","attributes":{},"color":"rgb(107,95,241)","size":1.0},{"source":"127","target":"84","id":"525","attributes":{},"color":"rgb(147,72,238)","size":1.0},{"source":"200","target":"84","id":"1115","attributes":{},"color":"rgb(229,79,156)","size":1.0},{"source":"154","target":"152","id":"789","attributes":{},"color":"rgb(163,63,236)","size":1.0},{"source":"195","target":"84","id":"1072","attributes":{},"color":"rgb(150,71,238)","size":1.0},{"source":"172","target":"12","id":"881","attributes":{},"color":"rgb(93,103,242)","size":1.0},{"source":"206","target":"136","id":"1182","attributes":{},"color":"rgb(156,151,123)","size":1.0},{"source":"211","target":"106","id":"1209","attributes":{},"color":"rgb(82,109,243)","size":1.0},{"source":"74","target":"50","id":"222","attributes":{},"color":"rgb(155,145,131)","size":1.0},{"source":"95","target":"80","id":"366","attributes":{},"color":"rgb(152,142,139)","size":1.0},{"source":"136","target":"70","id":"661","attributes":{},"color":"rgb(247,133,68)","size":1.0},{"source":"87","target":"84","id":"338","attributes":{},"color":"rgb(176,55,236)","size":1.0},{"source":"179","target":"130","id":"942","attributes":{},"color":"rgb(155,120,166)","size":1.0},{"source":"192","target":"63","id":"1018","attributes":{},"color":"rgb(144,74,238)","size":1.0},{"source":"111","target":"84","id":"458","attributes":{},"color":"rgb(161,64,237)","size":1.0},{"source":"92","target":"80","id":"353","attributes":{},"color":"rgb(151,142,139)","size":1.0},{"source":"45","target":"41","id":"104","attributes":{},"color":"rgb(169,65,228)","size":1.0},{"source":"134","target":"135","id":"613","attributes":{},"color":"rgb(82,110,243)","size":1.0},{"source":"11","target":"191","id":"25","attributes":{},"color":"rgb(82,110,243)","size":1.0},{"source":"136","target":"74","id":"664","attributes":{},"color":"rgb(156,151,123)","size":1.0},{"source":"136","target":"134","id":"699","attributes":{},"color":"rgb(175,140,121)","size":1.0},{"source":"98","target":"41","id":"384","attributes":{},"color":"rgb(156,72,229)","size":1.0},{"source":"96","target":"27","id":"368","attributes":{},"color":"rgb(71,116,244)","size":1.0},{"source":"191","target":"80","id":"1006","attributes":{},"color":"rgb(162,136,138)","size":1.0},{"source":"154","target":"34","id":"755","attributes":{},"color":"rgb(141,76,238)","size":1.0},{"source":"157","target":"50","id":"793","attributes":{},"color":"rgb(162,142,131)","size":1.0},{"source":"22","target":"106","id":"41","attributes":{},"color":"rgb(103,97,241)","size":1.0},{"source":"71","target":"134","id":"216","attributes":{},"color":"rgb(76,113,244)","size":1.0},{"source":"203","target":"109","id":"1152","attributes":{},"color":"rgb(89,105,243)","size":1.0},{"source":"136","target":"210","id":"701","attributes":{},"color":"rgb(168,145,122)","size":1.0},{"source":"136","target":"35","id":"639","attributes":{},"color":"rgb(180,137,121)","size":1.0},{"source":"192","target":"191","id":"1046","attributes":{},"color":"rgb(148,72,238)","size":1.0},{"source":"226","target":"136","id":"1276","attributes":{},"color":"rgb(153,153,123)","size":1.0},{"source":"124","target":"64","id":"515","attributes":{},"color":"rgb(47,131,247)","size":1.0},{"source":"200","target":"136","id":"1123","attributes":{},"color":"rgb(250,152,40)","size":1.0},{"source":"205","target":"50","id":"1169","attributes":{},"color":"rgb(164,140,130)","size":1.0},{"source":"195","target":"80","id":"1071","attributes":{},"color":"rgb(168,132,137)","size":1.0}]}